{
"type": "FeatureCollection",
"crs": { "type": "name", "properties": { "name": "urn:ogc:def:crs:OGC:1.3:CRS84" } },
                                                                                
"features": [
{ "type": "Feature", "properties": { "ID": 1164744.000000, "SZSCD": 11.000000, "SZZCD": "BM", "DGPZ_CODE": 2.000000, "DGPSZ_CODE": 211.000000, "REGION": 3.000000, "DGPZ_NAME": "Bukit Merah", "DGPSZ_NAME": "Bukit Ho Swee", "Proportion": 51885 }, "geometry": { "type": "Point", "coordinates": [ 103.82733847076337, 1.278370989481477 ] } },
{ "type": "Feature", "properties": { "ID": 1164752.000000, "SZSCD": 2.000000, "SZZCD": "BS", "DGPZ_CODE": 3.000000, "DGPSZ_CODE": 302.000000, "REGION": 3.000000, "DGPZ_NAME": "Bishan", "DGPSZ_NAME": "Marymount", "Proportion": 19664 }, "geometry": { "type": "Point", "coordinates": [ 103.84488329259092, 1.354329817575156 ] } },
{ "type": "Feature", "properties": { "ID": 1164756.000000, "SZSCD": 3.000000, "SZZCD": "BT", "DGPZ_CODE": 4.000000, "DGPSZ_CODE": 403.000000, "REGION": 3.000000, "DGPZ_NAME": "Bukit Timah", "DGPSZ_NAME": "Anak Bukit", "Proportion": 2423 }, "geometry": { "type": "Point", "coordinates": [ 103.78377865923973, 1.327063572264534 ] } },
{ "type": "Feature", "properties": { "ID": 1164766.000000, "SZSCD": 5.000000, "SZZCD": "GL", "DGPZ_CODE": 5.000000, "DGPSZ_CODE": 505.000000, "REGION": 3.000000, "DGPZ_NAME": "Geylang", "DGPSZ_NAME": "Geylang East", "Proportion": 29256 }, "geometry": { "type": "Point", "coordinates": [ 103.89836722213626, 1.316944274837093 ] } },
{ "type": "Feature", "properties": { "ID": 1164774.000000, "SZSCD": 8.000000, "SZZCD": "KL", "DGPZ_CODE": 6.000000, "DGPSZ_CODE": 608.000000, "REGION": 3.000000, "DGPZ_NAME": "Kallang", "DGPSZ_NAME": "Others", "Proportion": 35740 }, "geometry": { "type": "Point", "coordinates": [ 103.86547855506277, 1.314075105327241 ] } },
{ "type": "Feature", "properties": { "ID": 1164778.000000, "SZSCD": 3.000000, "SZZCD": "MP", "DGPZ_CODE": 7.000000, "DGPSZ_CODE": 703.000000, "REGION": 3.000000, "DGPZ_NAME": "Marine Parade", "DGPSZ_NAME": "Marine Parade", "Proportion": 7862 }, "geometry": { "type": "Point", "coordinates": [ 103.90758604812673, 1.302811862502365 ] } },
{ "type": "Feature", "properties": { "ID": 1164786.000000, "SZSCD": 1.000000, "SZZCD": "QT", "DGPZ_CODE": 9.000000, "DGPSZ_CODE": 901.000000, "REGION": 3.000000, "DGPZ_NAME": "Queenstown", "DGPSZ_NAME": "Others", "Proportion": 30546 }, "geometry": { "type": "Point", "coordinates": [ 103.7880193509272, 1.311375658753496 ] } },
{ "type": "Feature", "properties": { "ID": 1164813.000000, "SZSCD": 6.000000, "SZZCD": "TP", "DGPZ_CODE": 12.000000, "DGPSZ_CODE": 1206.000000, "REGION": 3.000000, "DGPZ_NAME": "Toa Payoh", "DGPSZ_NAME": "Potong Pasir", "Proportion": 36439 }, "geometry": { "type": "Point", "coordinates": [ 103.85860610523697, 1.336785355640749 ] } },
{ "type": "Feature", "properties": { "ID": 1164824.000000, "SZSCD": 5.000000, "SZZCD": "BD", "DGPZ_CODE": 13.000000, "DGPSZ_CODE": 1305.000000, "REGION": 4.000000, "DGPZ_NAME": "Bedok", "DGPSZ_NAME": "Frankel", "Proportion": 60115 }, "geometry": { "type": "Point", "coordinates": [ 103.92040950022208, 1.314760446849955 ] } },
{ "type": "Feature", "properties": { "ID": 1164839.000000, "SZSCD": 3.000000, "SZZCD": "PR", "DGPZ_CODE": 17.000000, "DGPSZ_CODE": 1703.000000, "REGION": 4.000000, "DGPZ_NAME": "Pasir Ris", "DGPSZ_NAME": "Others", "Proportion": 29207 }, "geometry": { "type": "Point", "coordinates": [ 103.94795328952627, 1.372099588122755 ] } },
{ "type": "Feature", "properties": { "ID": 1164845.000000, "SZSCD": 2.000000, "SZZCD": "TM", "DGPZ_CODE": 18.000000, "DGPSZ_CODE": 1802.000000, "REGION": 4.000000, "DGPZ_NAME": "Tampines", "DGPSZ_NAME": "Others", "Proportion": 66599 }, "geometry": { "type": "Point", "coordinates": [ 103.95119431030597, 1.354434433277497 ] } },
{ "type": "Feature", "properties": { "ID": 1164849.000000, "SZSCD": 1.000000, "SZZCD": "AM", "DGPZ_CODE": 19.000000, "DGPSZ_CODE": 1901.000000, "REGION": 5.000000, "DGPZ_NAME": "Ang Mo Kio", "DGPSZ_NAME": "Others", "Proportion": 49169 }, "geometry": { "type": "Point", "coordinates": [ 103.84681577891251, 1.372778912490496 ] } },
{ "type": "Feature", "properties": { "ID": 1164862.000000, "SZSCD": 4.000000, "SZZCD": "HG", "DGPZ_CODE": 20.000000, "DGPSZ_CODE": 2004.000000, "REGION": 5.000000, "DGPZ_NAME": "Hougang", "DGPSZ_NAME": "Trafalgar", "Proportion": 51646 }, "geometry": { "type": "Point", "coordinates": [ 103.88660998704363, 1.35682938338472 ] } },
{ "type": "Feature", "properties": { "ID": 1164870.000000, "SZSCD": 4.000000, "SZZCD": "PG", "DGPZ_CODE": 22.000000, "DGPSZ_CODE": 2204.000000, "REGION": 5.000000, "DGPZ_NAME": "Punggol", "DGPSZ_NAME": "Punggol", "Proportion": 35515 }, "geometry": { "type": "Point", "coordinates": [ 103.91225965021941, 1.396542849996278 ] } },
{ "type": "Feature", "properties": { "ID": 1164874.000000, "SZSCD": 4.000000, "SZZCD": "SE", "DGPZ_CODE": 23.000000, "DGPSZ_CODE": 2304.000000, "REGION": 5.000000, "DGPZ_NAME": "Sengkang", "DGPSZ_NAME": "Others", "Proportion": 59033 }, "geometry": { "type": "Point", "coordinates": [ 103.8891703020786, 1.394445105467346 ] } },
{ "type": "Feature", "properties": { "ID": 1164880.000000, "SZSCD": 3.000000, "SZZCD": "SG", "DGPZ_CODE": 24.000000, "DGPSZ_CODE": 2403.000000, "REGION": 5.000000, "DGPZ_NAME": "Serangoon", "DGPSZ_NAME": "Serangoon Garden", "Proportion": 21293 }, "geometry": { "type": "Point", "coordinates": [ 103.86666428408383, 1.362739819237325 ] } },
{ "type": "Feature", "properties": { "ID": 1164889.000000, "SZSCD": 3.000000, "SZZCD": "SB", "DGPZ_CODE": 28.000000, "DGPSZ_CODE": 2803.000000, "REGION": 6.000000, "DGPZ_NAME": "Sembawang", "DGPSZ_NAME": "Others", "Proportion": 20775 }, "geometry": { "type": "Point", "coordinates": [ 103.81777421550191, 1.446369696607796 ] } },
{ "type": "Feature", "properties": { "ID": 1164908.000000, "SZSCD": 1.000000, "SZZCD": "WD", "DGPZ_CODE": 31.000000, "DGPSZ_CODE": 3101.000000, "REGION": 6.000000, "DGPZ_NAME": "Woodlands", "DGPSZ_NAME": "Others", "Proportion": 62675 }, "geometry": { "type": "Point", "coordinates": [ 103.78453614131014, 1.43860161238532 ] } },
{ "type": "Feature", "properties": { "ID": 1164920.000000, "SZSCD": 4.000000, "SZZCD": "YS", "DGPZ_CODE": 32.000000, "DGPSZ_CODE": 3204.000000, "REGION": 6.000000, "DGPZ_NAME": "Yishun", "DGPSZ_NAME": "Others", "Proportion": 56698 }, "geometry": { "type": "Point", "coordinates": [ 103.83781878753547, 1.418463628665809 ] } },
{ "type": "Feature", "properties": { "ID": 1164934.000000, "SZSCD": 8.000000, "SZZCD": "BK", "DGPZ_CODE": 34.000000, "DGPSZ_CODE": 3408.000000, "REGION": 8.000000, "DGPZ_NAME": "Bukit Batok", "DGPSZ_NAME": "Others", "Proportion": 32275 }, "geometry": { "type": "Point", "coordinates": [ 103.75755206705622, 1.349122200578122 ] } },
{ "type": "Feature", "properties": { "ID": 1164949.000000, "SZSCD": 5.000000, "SZZCD": "BP", "DGPZ_CODE": 36.000000, "DGPSZ_CODE": 3605.000000, "REGION": 8.000000, "DGPZ_NAME": "Bukit Panjang", "DGPSZ_NAME": "Bukit Panjang", "Proportion": 34463 }, "geometry": { "type": "Point", "coordinates": [ 103.76623186150302, 1.375929902787009 ] } },
{ "type": "Feature", "properties": { "ID": 1164954.000000, "SZSCD": 3.000000, "SZZCD": "CK", "DGPZ_CODE": 37.000000, "DGPSZ_CODE": 3703.000000, "REGION": 8.000000, "DGPZ_NAME": "Choa Chu Kang", "DGPSZ_NAME": "Yew Tee", "Proportion": 42393 }, "geometry": { "type": "Point", "coordinates": [ 103.74764761454553, 1.385017753473827 ] } },
{ "type": "Feature", "properties": { "ID": 1164964.000000, "SZSCD": 6.000000, "SZZCD": "CL", "DGPZ_CODE": 38.000000, "DGPSZ_CODE": 3806.000000, "REGION": 8.000000, "DGPZ_NAME": "Clementi", "DGPSZ_NAME": "Others", "Proportion": 25480 }, "geometry": { "type": "Point", "coordinates": [ 103.76308842810688, 1.312076646964304 ] } },
{ "type": "Feature", "properties": { "ID": 1164975.000000, "SZSCD": 8.000000, "SZZCD": "JE", "DGPZ_CODE": 39.000000, "DGPSZ_CODE": 3908.000000, "REGION": 8.000000, "DGPZ_NAME": "Jurong East", "DGPSZ_NAME": "Others", "Proportion": 23379 }, "geometry": { "type": "Point", "coordinates": [ 103.74317678075273, 1.314834089711534 ] } },
{ "type": "Feature", "properties": { "ID": 1164979.000000, "SZSCD": 2.000000, "SZZCD": "JW", "DGPZ_CODE": 40.000000, "DGPSZ_CODE": 4002.000000, "REGION": 8.000000, "DGPZ_NAME": "Jurong West", "DGPSZ_NAME": "Others", "Proportion": 71755 }, "geometry": { "type": "Point", "coordinates": [ 103.71112863611825, 1.345858618241389 ] } }
]
}
