{
"type": "FeatureCollection",
"crs": { "type": "name", "properties": { "name": "urn:ogc:def:crs:EPSG::3414" } },
                                                                                
"features": [
{ "type": "Feature", "properties": { "ALL_SCHOOLS": "ADMIRALTY PRIMARY SCHOOL", "ADDRESS": "11 WOODLANDS CIRCLE", "POSTALCODE": 738907, "X_COORDINATES": 24296.625100, "Y_COORDINATES": 47144.770100, "LATITUDE": 1.442888, "LONGTITUDE": 103.799693, "Level_of_education_level_of_education": "Primary Schools (Excluding Mixed Level Schools)" }, "geometry": { "type": "Point", "coordinates": [ 24296.6251, 47144.7701 ] } },
{ "type": "Feature", "properties": { "ALL_SCHOOLS": "ADMIRALTY SECONDARY SCHOOL", "ADDRESS": "31 WOODLANDS CRESCENT", "POSTALCODE": 737916, "X_COORDINATES": 24559.047300, "Y_COORDINATES": 47504.787400, "LATITUDE": 1.445881, "LONGTITUDE": 103.802398, "Level_of_education_level_of_education": "Secondary Schools (Excluding Mixed Level Schools)" }, "geometry": { "type": "Point", "coordinates": [ 24559.0473, 47504.7874 ] } },
{ "type": "Feature", "properties": { "ALL_SCHOOLS": "AHMAD IBRAHIM PRIMARY SCHOOL", "ADDRESS": "10 YISHUN STREET 11", "POSTALCODE": 768643, "X_COORDINATES": 27958.137100, "Y_COORDINATES": 46096.262800, "LATITUDE": 1.433543, "LONGTITUDE": 103.832949, "Level_of_education_level_of_education": "Primary Schools (Excluding Mixed Level Schools)" }, "geometry": { "type": "Point", "coordinates": [ 27958.1371, 46096.2628 ] } },
{ "type": "Feature", "properties": { "ALL_SCHOOLS": "AHMAD IBRAHIM SECONDARY SCHOOL", "ADDRESS": "751 YISHUN AVENUE 7", "POSTALCODE": 768928, "X_COORDINATES": 27599.006100, "Y_COORDINATES": 46417.915900, "LATITUDE": 1.436663, "LONGTITUDE": 103.829889, "Level_of_education_level_of_education": "Secondary Schools (Excluding Mixed Level Schools)" }, "geometry": { "type": "Point", "coordinates": [ 27599.0061, 46417.9159 ] } },
{ "type": "Feature", "properties": { "ALL_SCHOOLS": "AI TONG SCHOOL", "ADDRESS": "4300 ANG MO KIO AVE 5", "POSTALCODE": 569869, "X_COORDINATES": 30656.249200, "Y_COORDINATES": 39668.397800, "LATITUDE": 1.375583, "LONGTITUDE": 103.856212, "Level_of_education_level_of_education": "Primary Schools (Excluding Mixed Level Schools)" }, "geometry": { "type": "Point", "coordinates": [ 30656.2492, 39668.3978 ] } },
{ "type": "Feature", "properties": { "ALL_SCHOOLS": "ALEXANDRA PRIMARY SCHOOL", "ADDRESS": "2A PRINCE CHARLES CRESCENT", "POSTALCODE": 159016, "X_COORDINATES": 26956.333000, "Y_COORDINATES": 30410.807600, "LATITUDE": 1.292730, "LONGTITUDE": 103.822089, "Level_of_education_level_of_education": "Primary Schools (Excluding Mixed Level Schools)" }, "geometry": { "type": "Point", "coordinates": [ 26956.333, 30410.8076 ] } },
{ "type": "Feature", "properties": { "ALL_SCHOOLS": "ANCHOR GREEN PRIMARY SCHOOL", "ADDRESS": "31 ANCHORVALE DRIVE", "POSTALCODE": 544969, "X_COORDINATES": 34002.539500, "Y_COORDINATES": 41397.975400, "LATITUDE": 1.390652, "LONGTITUDE": 103.887283, "Level_of_education_level_of_education": "Primary Schools (Excluding Mixed Level Schools)" }, "geometry": { "type": "Point", "coordinates": [ 34002.5395, 41397.9754 ] } },
{ "type": "Feature", "properties": { "ALL_SCHOOLS": "ANDERSON JUNIOR COLLEGE", "ADDRESS": "4500 ANG MO KIO AVENUE 6", "POSTALCODE": 569843, "X_COORDINATES": 29382.189100, "Y_COORDINATES": 40003.524100, "LATITUDE": 1.378043, "LONGTITUDE": 103.845762, "Level_of_education_level_of_education": "Junior Colleges\/Centralised Institute (Excluding Mixed Level Schools)" }, "geometry": { "type": "Point", "coordinates": [ 29382.1891, 40003.5241 ] } },
{ "type": "Feature", "properties": { "ALL_SCHOOLS": "ANDERSON PRIMARY SCHOOL", "ADDRESS": "6 ANG MO KIO AVE 2 ANDERSON PRIMARY SCHOOL", "POSTALCODE": 569948, "X_COORDINATES": 28276.735300, "Y_COORDINATES": 39792.772600, "LATITUDE": 1.376190, "LONGTITUDE": 103.835797, "Level_of_education_level_of_education": "Primary Schools (Excluding Mixed Level Schools)" }, "geometry": { "type": "Point", "coordinates": [ 28276.7353, 39792.7726 ] } },
{ "type": "Feature", "properties": { "ALL_SCHOOLS": "ANDERSON SECONDARY SCHOOL", "ADDRESS": "10 ANG MO KIO STREET 53", "POSTALCODE": 569206, "X_COORDINATES": 30029.389700, "Y_COORDINATES": 39593.059800, "LATITUDE": 1.374262, "LONGTITUDE": 103.851456, "Level_of_education_level_of_education": "Secondary Schools (Excluding Mixed Level Schools)" }, "geometry": { "type": "Point", "coordinates": [ 30029.3897, 39593.0598 ] } },
{ "type": "Feature", "properties": { "ALL_SCHOOLS": "ANG MO KIO PRIMARY SCHOOL", "ADDRESS": "20 ANG MO KIO AVENUE 3 ANG MO KIO PRIMARY SCHOOL", "POSTALCODE": 569920, "X_COORDINATES": 28702.480500, "Y_COORDINATES": 39038.160300, "LATITUDE": 1.368803, "LONGTITUDE": 103.839266, "Level_of_education_level_of_education": "Primary Schools (Excluding Mixed Level Schools)" }, "geometry": { "type": "Point", "coordinates": [ 28702.4805, 39038.1603 ] } },
{ "type": "Feature", "properties": { "ALL_SCHOOLS": "ANG MO KIO SECONDARY SCHOOL", "ADDRESS": "6 ANG MO KIO STREET 22", "POSTALCODE": 569362, "X_COORDINATES": 29032.952500, "Y_COORDINATES": 38821.129100, "LATITUDE": 1.367353, "LONGTITUDE": 103.842600, "Level_of_education_level_of_education": "Secondary Schools (Excluding Mixed Level Schools)" }, "geometry": { "type": "Point", "coordinates": [ 29032.9525, 38821.1291 ] } },
{ "type": "Feature", "properties": { "ALL_SCHOOLS": "ANGLICAN HIGH SCHOOL", "ADDRESS": "600 UPPER CHANGI ROAD", "POSTALCODE": 487012, "X_COORDINATES": 40054.493900, "Y_COORDINATES": 34729.326300, "LATITUDE": 1.330302, "LONGTITUDE": 103.941937, "Level_of_education_level_of_education": "Secondary Schools (Excluding Mixed Level Schools)" }, "geometry": { "type": "Point", "coordinates": [ 40054.4939, 34729.3263 ] } },
{ "type": "Feature", "properties": { "ALL_SCHOOLS": "ANGLO-CHINESE JUNIOR COLLEGE", "ADDRESS": "25 DOVER CLOSE EAST", "POSTALCODE": 139745, "X_COORDINATES": 22651.848700, "Y_COORDINATES": 31736.529600, "LATITUDE": 1.303305, "LONGTITUDE": 103.785253, "Level_of_education_level_of_education": "Junior Colleges\/Centralised Institute (Excluding Mixed Level Schools)" }, "geometry": { "type": "Point", "coordinates": [ 22651.8487, 31736.5296 ] } },
{ "type": "Feature", "properties": { "ALL_SCHOOLS": "ANGLO-CHINESE SCHOOL (BARKER ROAD)", "ADDRESS": "60 BARKER ROAD", "POSTALCODE": 309919, "X_COORDINATES": 28273.118400, "Y_COORDINATES": 33542.004400, "LATITUDE": 1.319611, "LONGTITUDE": 103.835757, "Level_of_education_level_of_education": "Secondary Schools (Excluding Mixed Level Schools)" }, "geometry": { "type": "Point", "coordinates": [ 28273.1184, 33542.0044 ] } },
{ "type": "Feature", "properties": { "ALL_SCHOOLS": "ANGLO-CHINESE SCHOOL (INDEPENDENT)", "ADDRESS": "121 DOVER ROAD", "POSTALCODE": 139650, "X_COORDINATES": 22106.573300, "Y_COORDINATES": 31782.555000, "LATITUDE": 1.302189, "LONGTITUDE": 103.780078, "Level_of_education_level_of_education": "Mixed Level Schools" }, "geometry": { "type": "Point", "coordinates": [ 22106.5733, 31782.555 ] } },
{ "type": "Feature", "properties": { "ALL_SCHOOLS": "ANGLO-CHINESE SCHOOL (JUNIOR)", "ADDRESS": "16 WINSTEDT ROAD", "POSTALCODE": 227988, "X_COORDINATES": 28963.800200, "Y_COORDINATES": 32368.471000, "LATITUDE": 1.309454, "LONGTITUDE": 103.841372, "Level_of_education_level_of_education": "Primary Schools (Excluding Mixed Level Schools)" }, "geometry": { "type": "Point", "coordinates": [ 28963.8002, 32368.471 ] } },
{ "type": "Feature", "properties": { "ALL_SCHOOLS": "ANGLO-CHINESE SCHOOL (PRIMARY)", "ADDRESS": "50 BARKER ROAD", "POSTALCODE": 309918, "X_COORDINATES": 28254.982900, "Y_COORDINATES": 33404.234100, "LATITUDE": 1.318735, "LONGTITUDE": 103.835345, "Level_of_education_level_of_education": "Primary Schools (Excluding Mixed Level Schools)" }, "geometry": { "type": "Point", "coordinates": [ 28254.9829, 33404.2341 ] } },
{ "type": "Feature", "properties": { "ALL_SCHOOLS": "ANGSANA PRIMARY SCHOOL", "ADDRESS": "3 TAMPINES STREET 22", "POSTALCODE": 529366, "X_COORDINATES": 41160.860800, "Y_COORDINATES": 36732.320500, "LATITUDE": 1.348251, "LONGTITUDE": 103.951859, "Level_of_education_level_of_education": "Primary Schools (Excluding Mixed Level Schools)" }, "geometry": { "type": "Point", "coordinates": [ 41160.8608, 36732.3205 ] } },
{ "type": "Feature", "properties": { "ALL_SCHOOLS": "ASSUMPTION ENGLISH SCHOOL", "ADDRESS": "121 QUEENSWAY", "POSTALCODE": 149059, "X_COORDINATES": 24321.392200, "Y_COORDINATES": 31599.706900, "LATITUDE": 1.302031, "LONGTITUDE": 103.800263, "Level_of_education_level_of_education": "Secondary Schools (Excluding Mixed Level Schools)" }, "geometry": { "type": "Point", "coordinates": [ 24321.3922, 31599.7069 ] } },
{ "type": "Feature", "properties": { "ALL_SCHOOLS": "ASSUMPTION PATHWAY SCHOOL", "ADDRESS": "30 CASHEW ROAD", "POSTALCODE": 679697, "X_COORDINATES": 20503.706900, "Y_COORDINATES": 39076.848600, "LATITUDE": 1.370527, "LONGTITUDE": 103.766753, "Level_of_education_level_of_education": "Secondary Schools (Excluding Mixed Level Schools)" }, "geometry": { "type": "Point", "coordinates": [ 20503.7069, 39076.8486 ] } },
{ "type": "Feature", "properties": { "ALL_SCHOOLS": "BALESTIER HILL PRIMARY SCHOOL", "ADDRESS": "565 BALESTIER ROAD", "POSTALCODE": 329927, "X_COORDINATES": 29236.677300, "Y_COORDINATES": 34203.845800, "LATITUDE": 1.325976, "LONGTITUDE": 103.844562, "Level_of_education_level_of_education": "Primary Schools (Excluding Mixed Level Schools)" }, "geometry": { "type": "Point", "coordinates": [ 29236.6773, 34203.8458 ] } },
{ "type": "Feature", "properties": { "ALL_SCHOOLS": "BALESTIER HILL SECONDARY SCHOOL", "ADDRESS": "11 NOVENA RISE", "POSTALCODE": 307516, "X_COORDINATES": 29137.956500, "Y_COORDINATES": 34061.627600, "LATITUDE": 1.324729, "LONGTITUDE": 103.844570, "Level_of_education_level_of_education": "Secondary Schools (Excluding Mixed Level Schools)" }, "geometry": { "type": "Point", "coordinates": [ 29137.9565, 34061.6276 ] } },
{ "type": "Feature", "properties": { "ALL_SCHOOLS": "BARTLEY SECONDARY SCHOOL", "ADDRESS": "10 JALAN BUNGA RAMPAI ROAD", "POSTALCODE": 538403, "X_COORDINATES": 33507.442400, "Y_COORDINATES": 35790.894500, "LATITUDE": 1.340275, "LONGTITUDE": 103.882831, "Level_of_education_level_of_education": "Secondary Schools (Excluding Mixed Level Schools)" }, "geometry": { "type": "Point", "coordinates": [ 33507.4424, 35790.8945 ] } },
{ "type": "Feature", "properties": { "ALL_SCHOOLS": "BEACON PRIMARY SCHOOL", "ADDRESS": "36 BUKIT PANJANG RING ROAD", "POSTALCODE": 679944, "X_COORDINATES": 21371.262000, "Y_COORDINATES": 40687.457700, "LATITUDE": 1.384235, "LONGTITUDE": 103.773770, "Level_of_education_level_of_education": "Primary Schools (Excluding Mixed Level Schools)" }, "geometry": { "type": "Point", "coordinates": [ 21371.262, 40687.4577 ] } },
{ "type": "Feature", "properties": { "ALL_SCHOOLS": "BEATTY SECONDARY SCHOOL", "ADDRESS": "1 TOA PAYOH NORTH", "POSTALCODE": 318990, "X_COORDINATES": 30081.098500, "Y_COORDINATES": 35993.901700, "LATITUDE": 1.341540, "LONGTITUDE": 103.851956, "Level_of_education_level_of_education": "Secondary Schools (Excluding Mixed Level Schools)" }, "geometry": { "type": "Point", "coordinates": [ 30081.0985, 35993.9017 ] } },
{ "type": "Feature", "properties": { "ALL_SCHOOLS": "BEDOK GREEN PRIMARY SCHOOL", "ADDRESS": "1 BEDOK SOUTH AVE 2", "POSTALCODE": 469317, "X_COORDINATES": 39621.622200, "Y_COORDINATES": 34026.543000, "LATITUDE": 1.323989, "LONGTITUDE": 103.937761, "Level_of_education_level_of_education": "Primary Schools (Excluding Mixed Level Schools)" }, "geometry": { "type": "Point", "coordinates": [ 39621.6222, 34026.543 ] } },
{ "type": "Feature", "properties": { "ALL_SCHOOLS": "BEDOK GREEN SECONDARY SCHOOL", "ADDRESS": "360 BEDOK NORTH AVE 3", "POSTALCODE": 469722, "X_COORDINATES": 39319.239100, "Y_COORDINATES": 35190.133400, "LATITUDE": 1.333844, "LONGTITUDE": 103.935512, "Level_of_education_level_of_education": "Secondary Schools (Excluding Mixed Level Schools)" }, "geometry": { "type": "Point", "coordinates": [ 39319.2391, 35190.1334 ] } },
{ "type": "Feature", "properties": { "ALL_SCHOOLS": "BEDOK NORTH SECONDARY SCHOOL", "ADDRESS": "20 JALAN DAMAI", "POSTALCODE": 419612, "X_COORDINATES": 36566.455000, "Y_COORDINATES": 35162.921100, "LATITUDE": 1.334289, "LONGTITUDE": 103.910319, "Level_of_education_level_of_education": "Secondary Schools (Excluding Mixed Level Schools)" }, "geometry": { "type": "Point", "coordinates": [ 36566.455, 35162.9211 ] } },
{ "type": "Feature", "properties": { "ALL_SCHOOLS": "BEDOK SOUTH SECONDARY SCHOOL", "ADDRESS": "1 JALAN LANGGAR BEDOK", "POSTALCODE": 468585, "X_COORDINATES": 41090.408200, "Y_COORDINATES": 34158.447600, "LATITUDE": 1.324809, "LONGTITUDE": 103.950977, "Level_of_education_level_of_education": "Secondary Schools (Excluding Mixed Level Schools)" }, "geometry": { "type": "Point", "coordinates": [ 41090.4082, 34158.4476 ] } },
{ "type": "Feature", "properties": { "ALL_SCHOOLS": "BEDOK TOWN SECONDARY SCHOOL", "ADDRESS": "232 BEDOK NORTH STREET 3", "POSTALCODE": 469626, "X_COORDINATES": 37909.485500, "Y_COORDINATES": 34876.530400, "LATITUDE": 1.331593, "LONGTITUDE": 103.922228, "Level_of_education_level_of_education": "Secondary Schools (Excluding Mixed Level Schools)" }, "geometry": { "type": "Point", "coordinates": [ 37909.4855, 34876.5304 ] } },
{ "type": "Feature", "properties": { "ALL_SCHOOLS": "BEDOK VIEW SECONDARY SCHOOL", "ADDRESS": "6 BEDOK SOUTH AVENUE 3", "POSTALCODE": 469293, "X_COORDINATES": 40292.837100, "Y_COORDINATES": 34044.348600, "LATITUDE": 1.324312, "LONGTITUDE": 103.943919, "Level_of_education_level_of_education": "Secondary Schools (Excluding Mixed Level Schools)" }, "geometry": { "type": "Point", "coordinates": [ 40292.8371, 34044.3486 ] } },
{ "type": "Feature", "properties": { "ALL_SCHOOLS": "BENDEMEER PRIMARY SCHOOL", "ADDRESS": "91 BENDEMEER ROAD", "POSTALCODE": 339948, "X_COORDINATES": 31570.807500, "Y_COORDINATES": 33784.851500, "LATITUDE": 1.322197, "LONGTITUDE": 103.865365, "Level_of_education_level_of_education": "Primary Schools (Excluding Mixed Level Schools)" }, "geometry": { "type": "Point", "coordinates": [ 31570.8075, 33784.8515 ] } },
{ "type": "Feature", "properties": { "ALL_SCHOOLS": "BENDEMEER SECONDARY SCHOOL", "ADDRESS": "1 ST WILFRED ROAD", "POSTALCODE": 327919, "X_COORDINATES": 31077.356700, "Y_COORDINATES": 34094.301000, "LATITUDE": 1.324320, "LONGTITUDE": 103.861002, "Level_of_education_level_of_education": "Secondary Schools (Excluding Mixed Level Schools)" }, "geometry": { "type": "Point", "coordinates": [ 31077.3567, 34094.301 ] } },
{ "type": "Feature", "properties": { "ALL_SCHOOLS": "BISHAN PARK SECONDARY SCHOOL", "ADDRESS": "2 SIN MING WALK", "POSTALCODE": 575565, "X_COORDINATES": 27934.421100, "Y_COORDINATES": 38586.172400, "LATITUDE": 1.364364, "LONGTITUDE": 103.832825, "Level_of_education_level_of_education": "Secondary Schools (Excluding Mixed Level Schools)" }, "geometry": { "type": "Point", "coordinates": [ 27934.4211, 38586.1724 ] } },
{ "type": "Feature", "properties": { "ALL_SCHOOLS": "BLANGAH RISE PRIMARY SCHOOL", "ADDRESS": "91 TELOK BLANGAH HEIGHTS", "POSTALCODE": 109100, "X_COORDINATES": 25252.176400, "Y_COORDINATES": 28732.437400, "LATITUDE": 1.276261, "LONGTITUDE": 103.808522, "Level_of_education_level_of_education": "Primary Schools (Excluding Mixed Level Schools)" }, "geometry": { "type": "Point", "coordinates": [ 25252.1764, 28732.4374 ] } },
{ "type": "Feature", "properties": { "ALL_SCHOOLS": "BOON LAY GARDEN PRIMARY SCHOOL", "ADDRESS": "20 BOON LAY DRIVE", "POSTALCODE": 649930, "X_COORDINATES": 14606.391500, "Y_COORDINATES": 36111.012200, "LATITUDE": 1.342870, "LONGTITUDE": 103.712983, "Level_of_education_level_of_education": "Primary Schools (Excluding Mixed Level Schools)" }, "geometry": { "type": "Point", "coordinates": [ 14606.3915, 36111.0122 ] } },
{ "type": "Feature", "properties": { "ALL_SCHOOLS": "BOON LAY SECONDARY SCHOOL", "ADDRESS": "11 JURONG WEST STREET 65", "POSTALCODE": 648354, "X_COORDINATES": 13373.418000, "Y_COORDINATES": 36097.362600, "LATITUDE": 1.342172, "LONGTITUDE": 103.701945, "Level_of_education_level_of_education": "Secondary Schools (Excluding Mixed Level Schools)" }, "geometry": { "type": "Point", "coordinates": [ 13373.418, 36097.3626 ] } },
{ "type": "Feature", "properties": { "ALL_SCHOOLS": "BOWEN SECONDARY SCHOOL", "ADDRESS": "2 LORONG NAPIRI", "POSTALCODE": 547529, "X_COORDINATES": 32912.297400, "Y_COORDINATES": 39196.250100, "LATITUDE": 1.370117, "LONGTITUDE": 103.877649, "Level_of_education_level_of_education": "Secondary Schools (Excluding Mixed Level Schools)" }, "geometry": { "type": "Point", "coordinates": [ 32912.2974, 39196.2501 ] } },
{ "type": "Feature", "properties": { "ALL_SCHOOLS": "BROADRICK SECONDARY SCHOOL", "ADDRESS": "61 DAKOTA CRESCENT", "POSTALCODE": 399935, "X_COORDINATES": 33965.056800, "Y_COORDINATES": 32152.586500, "LATITUDE": 1.307522, "LONGTITUDE": 103.886698, "Level_of_education_level_of_education": "Secondary Schools (Excluding Mixed Level Schools)" }, "geometry": { "type": "Point", "coordinates": [ 33965.0568, 32152.5865 ] } },
{ "type": "Feature", "properties": { "ALL_SCHOOLS": "BUKIT BATOK SECONDARY SCHOOL", "ADDRESS": "50 BUKIT BATOK WEST AVE 8", "POSTALCODE": 658962, "X_COORDINATES": 17711.910200, "Y_COORDINATES": 36734.979000, "LATITUDE": 1.348506, "LONGTITUDE": 103.740867, "Level_of_education_level_of_education": "Secondary Schools (Excluding Mixed Level Schools)" }, "geometry": { "type": "Point", "coordinates": [ 17711.9102, 36734.979 ] } },
{ "type": "Feature", "properties": { "ALL_SCHOOLS": "BUKIT MERAH SECONDARY SCHOOL", "ADDRESS": "10 LENGKOK BAHRU", "POSTALCODE": 159050, "X_COORDINATES": 25741.284800, "Y_COORDINATES": 29801.005800, "LATITUDE": 1.285583, "LONGTITUDE": 103.813440, "Level_of_education_level_of_education": "Secondary Schools (Excluding Mixed Level Schools)" }, "geometry": { "type": "Point", "coordinates": [ 25741.2848, 29801.0058 ] } },
{ "type": "Feature", "properties": { "ALL_SCHOOLS": "BUKIT PANJANG GOVT. HIGH SCHOOL", "ADDRESS": "7 CHOA CHU KANG AVE 4", "POSTALCODE": 689809, "X_COORDINATES": 17431.628700, "Y_COORDINATES": 40465.207900, "LATITUDE": 1.381660, "LONGTITUDE": 103.738424, "Level_of_education_level_of_education": "Secondary Schools (Excluding Mixed Level Schools)" }, "geometry": { "type": "Point", "coordinates": [ 17431.6287, 40465.2079 ] } },
{ "type": "Feature", "properties": { "ALL_SCHOOLS": "BUKIT PANJANG PRIMARY SCHOOL", "ADDRESS": "109 CASHEW ROAD", "POSTALCODE": 679676, "X_COORDINATES": 20877.462400, "Y_COORDINATES": 39497.187800, "LATITUDE": 1.372930, "LONGTITUDE": 103.769259, "Level_of_education_level_of_education": "Primary Schools (Excluding Mixed Level Schools)" }, "geometry": { "type": "Point", "coordinates": [ 20877.4624, 39497.1878 ] } },
{ "type": "Feature", "properties": { "ALL_SCHOOLS": "BUKIT TIMAH PRIMARY SCHOOL", "ADDRESS": "111 LORONG KISMIS", "POSTALCODE": 598112, "X_COORDINATES": 20603.347000, "Y_COORDINATES": 35547.200100, "LATITUDE": 1.337385, "LONGTITUDE": 103.766768, "Level_of_education_level_of_education": "Primary Schools (Excluding Mixed Level Schools)" }, "geometry": { "type": "Point", "coordinates": [ 20603.347, 35547.2001 ] } },
{ "type": "Feature", "properties": { "ALL_SCHOOLS": "BUKIT VIEW PRIMARY SCHOOL", "ADDRESS": "18 BUKIT BATOK STREET 21", "POSTALCODE": 659634, "X_COORDINATES": 19095.208800, "Y_COORDINATES": 36487.666600, "LATITUDE": 1.346179, "LONGTITUDE": 103.753862, "Level_of_education_level_of_education": "Primary Schools (Excluding Mixed Level Schools)" }, "geometry": { "type": "Point", "coordinates": [ 19095.2088, 36487.6666 ] } },
{ "type": "Feature", "properties": { "ALL_SCHOOLS": "BUKIT VIEW SECONDARY SCHOOL", "ADDRESS": "16 BUKIT BATOK STREET 21", "POSTALCODE": 659633, "X_COORDINATES": 18981.046500, "Y_COORDINATES": 36428.894800, "LATITUDE": 1.345720, "LONGTITUDE": 103.752298, "Level_of_education_level_of_education": "Secondary Schools (Excluding Mixed Level Schools)" }, "geometry": { "type": "Point", "coordinates": [ 18981.0465, 36428.8948 ] } },
{ "type": "Feature", "properties": { "ALL_SCHOOLS": "CANBERRA PRIMARY SCHOOL", "ADDRESS": "21 ADMIRALTY DRIVE", "POSTALCODE": 757714, "X_COORDINATES": 26054.855300, "Y_COORDINATES": 48103.422900, "LATITUDE": 1.450666, "LONGTITUDE": 103.815870, "Level_of_education_level_of_education": "Primary Schools (Excluding Mixed Level Schools)" }, "geometry": { "type": "Point", "coordinates": [ 26054.8553, 48103.4229 ] } },
{ "type": "Feature", "properties": { "ALL_SCHOOLS": "CANBERRA SECONDARY SCHOOL", "ADDRESS": "51 SEMBAWANG DRIVE", "POSTALCODE": 757699, "X_COORDINATES": 25871.841800, "Y_COORDINATES": 48315.755900, "LATITUDE": 1.453794, "LONGTITUDE": 103.814663, "Level_of_education_level_of_education": "Secondary Schools (Excluding Mixed Level Schools)" }, "geometry": { "type": "Point", "coordinates": [ 25871.8418, 48315.7559 ] } },
{ "type": "Feature", "properties": { "ALL_SCHOOLS": "CANOSSA CONVENT PRIMARY SCHOOL", "ADDRESS": "1 SALLIM ROAD", "POSTALCODE": 387621, "X_COORDINATES": 33439.883000, "Y_COORDINATES": 34279.731500, "LATITUDE": 1.326166, "LONGTITUDE": 103.882253, "Level_of_education_level_of_education": "Primary Schools (Excluding Mixed Level Schools)" }, "geometry": { "type": "Point", "coordinates": [ 33439.883, 34279.7315 ] } },
{ "type": "Feature", "properties": { "ALL_SCHOOLS": "CASUARINA PRIMARY SCHOOL", "ADDRESS": "30 PASIR RIS ST 41", "POSTALCODE": 518935, "X_COORDINATES": 41766.497800, "Y_COORDINATES": 39385.595900, "LATITUDE": 1.372421, "LONGTITUDE": 103.957724, "Level_of_education_level_of_education": "Primary Schools (Excluding Mixed Level Schools)" }, "geometry": { "type": "Point", "coordinates": [ 41766.4978, 39385.5959 ] } },
{ "type": "Feature", "properties": { "ALL_SCHOOLS": "CATHOLIC HIGH SCHOOL", "ADDRESS": "9 BISHAN STREET 22", "POSTALCODE": 579767, "X_COORDINATES": 29286.061800, "Y_COORDINATES": 37423.913500, "LATITUDE": 1.355193, "LONGTITUDE": 103.846228, "Level_of_education_level_of_education": "Mixed Level Schools" }, "geometry": { "type": "Point", "coordinates": [ 29286.0618, 37423.9135 ] } },
{ "type": "Feature", "properties": { "ALL_SCHOOLS": "CATHOLIC JUNIOR COLLEGE", "ADDRESS": "129 WHITLEY ROAD", "POSTALCODE": 297822, "X_COORDINATES": 28248.493800, "Y_COORDINATES": 34098.448000, "LATITUDE": 1.324641, "LONGTITUDE": 103.835540, "Level_of_education_level_of_education": "Junior Colleges\/Centralised Institute (Excluding Mixed Level Schools)" }, "geometry": { "type": "Point", "coordinates": [ 28248.4938, 34098.448 ] } },
{ "type": "Feature", "properties": { "ALL_SCHOOLS": "CEDAR GIRLS' SECONDARY SCHOOL", "ADDRESS": "1 CEDAR AVENUE", "POSTALCODE": 349692, "X_COORDINATES": 32548.695200, "Y_COORDINATES": 35134.742100, "LATITUDE": 1.333751, "LONGTITUDE": 103.874242, "Level_of_education_level_of_education": "Secondary Schools (Excluding Mixed Level Schools)" }, "geometry": { "type": "Point", "coordinates": [ 32548.6952, 35134.7421 ] } },
{ "type": "Feature", "properties": { "ALL_SCHOOLS": "CEDAR PRIMARY SCHOOL", "ADDRESS": "15 CEDAR AVENUE", "POSTALCODE": 349700, "X_COORDINATES": 32693.376900, "Y_COORDINATES": 35313.977100, "LATITUDE": 1.335578, "LONGTITUDE": 103.876669, "Level_of_education_level_of_education": "Primary Schools (Excluding Mixed Level Schools)" }, "geometry": { "type": "Point", "coordinates": [ 32693.3769, 35313.9771 ] } },
{ "type": "Feature", "properties": { "ALL_SCHOOLS": "CHANGKAT CHANGI SECONDARY SCHOOL", "ADDRESS": "23 SIMEI ST 3", "POSTALCODE": 529894, "X_COORDINATES": 41295.321700, "Y_COORDINATES": 35838.987800, "LATITUDE": 1.340939, "LONGTITUDE": 103.952619, "Level_of_education_level_of_education": "Secondary Schools (Excluding Mixed Level Schools)" }, "geometry": { "type": "Point", "coordinates": [ 41295.3217, 35838.9878 ] } },
{ "type": "Feature", "properties": { "ALL_SCHOOLS": "CHANGKAT PRIMARY SCHOOL", "ADDRESS": "11 SIMEI ST 3", "POSTALCODE": 529896, "X_COORDINATES": 41228.385600, "Y_COORDINATES": 35819.229500, "LATITUDE": 1.340164, "LONGTITUDE": 103.951801, "Level_of_education_level_of_education": "Primary Schools (Excluding Mixed Level Schools)" }, "geometry": { "type": "Point", "coordinates": [ 41228.3856, 35819.2295 ] } },
{ "type": "Feature", "properties": { "ALL_SCHOOLS": "CHESTNUT DRIVE SECONDARY SCHOOL", "ADDRESS": "58 CHESTNUT DRIVE", "POSTALCODE": 679301, "X_COORDINATES": 21048.617300, "Y_COORDINATES": 38964.062000, "LATITUDE": 1.368670, "LONGTITUDE": 103.770848, "Level_of_education_level_of_education": "Secondary Schools (Excluding Mixed Level Schools)" }, "geometry": { "type": "Point", "coordinates": [ 21048.6173, 38964.062 ] } },
{ "type": "Feature", "properties": { "ALL_SCHOOLS": "CHIJ (KATONG) PRIMARY", "ADDRESS": "17 MARTIA ROAD", "POSTALCODE": 424821, "X_COORDINATES": 36636.498300, "Y_COORDINATES": 32094.753700, "LATITUDE": 1.306931, "LONGTITUDE": 103.910846, "Level_of_education_level_of_education": "Primary Schools (Excluding Mixed Level Schools)" }, "geometry": { "type": "Point", "coordinates": [ 36636.4983, 32094.7537 ] } },
{ "type": "Feature", "properties": { "ALL_SCHOOLS": "CHIJ KATONG CONVENT", "ADDRESS": "346 MARINE TERRACE", "POSTALCODE": 449150, "X_COORDINATES": 37329.037900, "Y_COORDINATES": 32085.451700, "LATITUDE": 1.306597, "LONGTITUDE": 103.917751, "Level_of_education_level_of_education": "Secondary Schools (Excluding Mixed Level Schools)" }, "geometry": { "type": "Point", "coordinates": [ 37329.0379, 32085.4517 ] } },
{ "type": "Feature", "properties": { "ALL_SCHOOLS": "CHIJ OUR LADY OF GOOD COUNSEL", "ADDRESS": "2C BURGHLEY DRIVE", "POSTALCODE": 558979, "X_COORDINATES": 31442.327700, "Y_COORDINATES": 37780.907200, "LATITUDE": 1.357320, "LONGTITUDE": 103.863998, "Level_of_education_level_of_education": "Primary Schools (Excluding Mixed Level Schools)" }, "geometry": { "type": "Point", "coordinates": [ 31442.3277, 37780.9072 ] } },
{ "type": "Feature", "properties": { "ALL_SCHOOLS": "CHIJ OUR LADY OF THE NATIVITY", "ADDRESS": "1257 UPPER SERANGOON ROAD", "POSTALCODE": 534793, "X_COORDINATES": 35160.344100, "Y_COORDINATES": 39464.217900, "LATITUDE": 1.372971, "LONGTITUDE": 103.898088, "Level_of_education_level_of_education": "Primary Schools (Excluding Mixed Level Schools)" }, "geometry": { "type": "Point", "coordinates": [ 35160.3441, 39464.2179 ] } },
{ "type": "Feature", "properties": { "ALL_SCHOOLS": "CHIJ OUR LADY QUEEN OF PEACE", "ADDRESS": "4 CHESTNUT DRIVE", "POSTALCODE": 679287, "X_COORDINATES": 20696.859400, "Y_COORDINATES": 38754.772600, "LATITUDE": 1.366297, "LONGTITUDE": 103.767594, "Level_of_education_level_of_education": "Primary Schools (Excluding Mixed Level Schools)" }, "geometry": { "type": "Point", "coordinates": [ 20696.8594, 38754.7726 ] } },
{ "type": "Feature", "properties": { "ALL_SCHOOLS": "CHIJ PRIMARY (TOA PAYOH)", "ADDRESS": "628 LORONG 1 TOA PAYOH", "POSTALCODE": 319765, "X_COORDINATES": 28949.153700, "Y_COORDINATES": 34994.534600, "LATITUDE": 1.333107, "LONGTITUDE": 103.841908, "Level_of_education_level_of_education": "Primary Schools (Excluding Mixed Level Schools)" }, "geometry": { "type": "Point", "coordinates": [ 28949.1537, 34994.5346 ] } },
{ "type": "Feature", "properties": { "ALL_SCHOOLS": "CHIJ SECONDARY (TOA PAYOH)", "ADDRESS": "626 LORONG 1 TOA PAYOH", "POSTALCODE": 319764, "X_COORDINATES": 29107.670400, "Y_COORDINATES": 34962.264200, "LATITUDE": 1.332007, "LONGTITUDE": 103.842993, "Level_of_education_level_of_education": "Secondary Schools (Excluding Mixed Level Schools)" }, "geometry": { "type": "Point", "coordinates": [ 29107.6704, 34962.2642 ] } },
{ "type": "Feature", "properties": { "ALL_SCHOOLS": "CHIJ ST. JOSEPH'S CONVENT", "ADDRESS": "62 SENG KANG EAST WAY", "POSTALCODE": 548595, "X_COORDINATES": 35695.089700, "Y_COORDINATES": 41518.518000, "LATITUDE": 1.391747, "LONGTITUDE": 103.902461, "Level_of_education_level_of_education": "Secondary Schools (Excluding Mixed Level Schools)" }, "geometry": { "type": "Point", "coordinates": [ 35695.0897, 41518.518 ] } },
{ "type": "Feature", "properties": { "ALL_SCHOOLS": "CHIJ ST. NICHOLAS GIRLS' SCHOOL", "ADDRESS": "501 ANG MO KIO STREET 13", "POSTALCODE": 569405, "X_COORDINATES": 28104.019600, "Y_COORDINATES": 39497.610600, "LATITUDE": 1.373744, "LONGTITUDE": 103.834301, "Level_of_education_level_of_education": "Mixed Level Schools" }, "geometry": { "type": "Point", "coordinates": [ 28104.0196, 39497.6106 ] } },
{ "type": "Feature", "properties": { "ALL_SCHOOLS": "CHONG BOON SECONDARY SCHOOL", "ADDRESS": "2 ANG MO KIO STREET 44", "POSTALCODE": 569250, "X_COORDINATES": 30787.084400, "Y_COORDINATES": 38446.580400, "LATITUDE": 1.363994, "LONGTITUDE": 103.858355, "Level_of_education_level_of_education": "Secondary Schools (Excluding Mixed Level Schools)" }, "geometry": { "type": "Point", "coordinates": [ 30787.0844, 38446.5804 ] } },
{ "type": "Feature", "properties": { "ALL_SCHOOLS": "CHONGFU SCHOOL", "ADDRESS": "170 YISHUN AVENUE 6", "POSTALCODE": 768959, "X_COORDINATES": 28640.123700, "Y_COORDINATES": 46683.372000, "LATITUDE": 1.438563, "LONGTITUDE": 103.839285, "Level_of_education_level_of_education": "Primary Schools (Excluding Mixed Level Schools)" }, "geometry": { "type": "Point", "coordinates": [ 28640.1237, 46683.372 ] } },
{ "type": "Feature", "properties": { "ALL_SCHOOLS": "CHONGZHENG PRIMARY SCHOOL", "ADDRESS": "1 TAMPINES STREET 21", "POSTALCODE": 529392, "X_COORDINATES": 41121.697800, "Y_COORDINATES": 36967.741700, "LATITUDE": 1.350835, "LONGTITUDE": 103.951438, "Level_of_education_level_of_education": "Primary Schools (Excluding Mixed Level Schools)" }, "geometry": { "type": "Point", "coordinates": [ 41121.6978, 36967.7417 ] } },
{ "type": "Feature", "properties": { "ALL_SCHOOLS": "CHRIST CHURCH SECONDARY SCHOOL", "ADDRESS": "20 WOODLANDS DRIVE 17", "POSTALCODE": 737924, "X_COORDINATES": 23511.715900, "Y_COORDINATES": 45365.081300, "LATITUDE": 1.426395, "LONGTITUDE": 103.793419, "Level_of_education_level_of_education": "Secondary Schools (Excluding Mixed Level Schools)" }, "geometry": { "type": "Point", "coordinates": [ 23511.7159, 45365.0813 ] } },
{ "type": "Feature", "properties": { "ALL_SCHOOLS": "CHUA CHU KANG PRIMARY SCHOOL", "ADDRESS": "20 CHOA CHU KANG AVENUE 2", "POSTALCODE": 689905, "X_COORDINATES": 17821.857900, "Y_COORDINATES": 39969.563300, "LATITUDE": 1.378056, "LONGTITUDE": 103.741723, "Level_of_education_level_of_education": "Primary Schools (Excluding Mixed Level Schools)" }, "geometry": { "type": "Point", "coordinates": [ 17821.8579, 39969.5633 ] } },
{ "type": "Feature", "properties": { "ALL_SCHOOLS": "CHUA CHU KANG SECONDARY SCHOOL", "ADDRESS": "3 TECK WHYE CRESCENT", "POSTALCODE": 688845, "X_COORDINATES": 18936.729500, "Y_COORDINATES": 40571.826100, "LATITUDE": 1.383169, "LONGTITUDE": 103.751584, "Level_of_education_level_of_education": "Secondary Schools (Excluding Mixed Level Schools)" }, "geometry": { "type": "Point", "coordinates": [ 18936.7295, 40571.8261 ] } },
{ "type": "Feature", "properties": { "ALL_SCHOOLS": "CHUNG CHENG HIGH SCHOOL (MAIN)", "ADDRESS": "50 GOODMAN ROAD", "POSTALCODE": 439012, "X_COORDINATES": 34390.093900, "Y_COORDINATES": 31968.004200, "LATITUDE": 1.305368, "LONGTITUDE": 103.890726, "Level_of_education_level_of_education": "Secondary Schools (Excluding Mixed Level Schools)" }, "geometry": { "type": "Point", "coordinates": [ 34390.0939, 31968.0042 ] } },
{ "type": "Feature", "properties": { "ALL_SCHOOLS": "CHUNG CHENG HIGH SCHOOL (YISHUN)", "ADDRESS": "11 YISHUN ST 61", "POSTALCODE": 768547, "X_COORDINATES": 28445.221400, "Y_COORDINATES": 44503.244400, "LATITUDE": 1.418737, "LONGTITUDE": 103.837311, "Level_of_education_level_of_education": "Secondary Schools (Excluding Mixed Level Schools)" }, "geometry": { "type": "Point", "coordinates": [ 28445.2214, 44503.2444 ] } },
{ "type": "Feature", "properties": { "ALL_SCHOOLS": "CLEMENTI PRIMARY SCHOOL", "ADDRESS": "8 CLEMENTI AVE 3", "POSTALCODE": 129903, "X_COORDINATES": 20180.323200, "Y_COORDINATES": 33121.053200, "LATITUDE": 1.315403, "LONGTITUDE": 103.763253, "Level_of_education_level_of_education": "Primary Schools (Excluding Mixed Level Schools)" }, "geometry": { "type": "Point", "coordinates": [ 20180.3232, 33121.0532 ] } },
{ "type": "Feature", "properties": { "ALL_SCHOOLS": "CLEMENTI TOWN SECONDARY SCHOOL", "ADDRESS": "10 CLEMENTI AVE 3", "POSTALCODE": 129904, "X_COORDINATES": 20065.221100, "Y_COORDINATES": 33091.263900, "LATITUDE": 1.315501, "LONGTITUDE": 103.762094, "Level_of_education_level_of_education": "Secondary Schools (Excluding Mixed Level Schools)" }, "geometry": { "type": "Point", "coordinates": [ 20065.2211, 33091.2639 ] } },
{ "type": "Feature", "properties": { "ALL_SCHOOLS": "CLEMENTI WOODS SECONDARY SCHOOL", "ADDRESS": "170 WEST COAST ROAD", "POSTALCODE": 127443, "X_COORDINATES": 20409.973300, "Y_COORDINATES": 32049.323800, "LATITUDE": 1.306538, "LONGTITUDE": 103.765132, "Level_of_education_level_of_education": "Secondary Schools (Excluding Mixed Level Schools)" }, "geometry": { "type": "Point", "coordinates": [ 20409.9733, 32049.3238 ] } },
{ "type": "Feature", "properties": { "ALL_SCHOOLS": "COMMONWEALTH SECONDARY SCHOOL", "ADDRESS": "698 WEST COAST ROAD", "POSTALCODE": 608784, "X_COORDINATES": 18241.940900, "Y_COORDINATES": 33496.560500, "LATITUDE": 1.319200, "LONGTITUDE": 103.745652, "Level_of_education_level_of_education": "Secondary Schools (Excluding Mixed Level Schools)" }, "geometry": { "type": "Point", "coordinates": [ 18241.9409, 33496.5605 ] } },
{ "type": "Feature", "properties": { "ALL_SCHOOLS": "COMPASSVALE PRIMARY SCHOOL", "ADDRESS": "21 COMPASSVALE ST", "POSTALCODE": 545091, "X_COORDINATES": 35177.290000, "Y_COORDINATES": 41816.290000, "LATITUDE": 1.394180, "LONGTITUDE": 103.897901, "Level_of_education_level_of_education": "Primary Schools (Excluding Mixed Level Schools)" }, "geometry": { "type": "Point", "coordinates": [ 35177.29, 41816.29 ] } },
{ "type": "Feature", "properties": { "ALL_SCHOOLS": "COMPASSVALE SECONDARY SCHOOL", "ADDRESS": "51 COMPASSVALE CRESCENT", "POSTALCODE": 545083, "X_COORDINATES": 35403.746100, "Y_COORDINATES": 42003.781000, "LATITUDE": 1.396086, "LONGTITUDE": 103.899711, "Level_of_education_level_of_education": "Secondary Schools (Excluding Mixed Level Schools)" }, "geometry": { "type": "Point", "coordinates": [ 35403.7461, 42003.781 ] } },
{ "type": "Feature", "properties": { "ALL_SCHOOLS": "CONCORD PRIMARY SCHOOL", "ADDRESS": "3 CHOA CHU KANG AVE 4", "POSTALCODE": 689814, "X_COORDINATES": 17185.554200, "Y_COORDINATES": 40264.628100, "LATITUDE": 1.380026, "LONGTITUDE": 103.736250, "Level_of_education_level_of_education": "Primary Schools (Excluding Mixed Level Schools)" }, "geometry": { "type": "Point", "coordinates": [ 17185.5542, 40264.6281 ] } },
{ "type": "Feature", "properties": { "ALL_SCHOOLS": "CORAL PRIMARY SCHOOL", "ADDRESS": "20 PASIR RIS ST 51", "POSTALCODE": 518902, "X_COORDINATES": 41067.821400, "Y_COORDINATES": 38938.047000, "LATITUDE": 1.367979, "LONGTITUDE": 103.950803, "Level_of_education_level_of_education": "Primary Schools (Excluding Mixed Level Schools)" }, "geometry": { "type": "Point", "coordinates": [ 41067.8214, 38938.047 ] } },
{ "type": "Feature", "properties": { "ALL_SCHOOLS": "CORAL SECONDARY SCHOOL", "ADDRESS": "31 PASIR RIS STREET 51", "POSTALCODE": 518901, "X_COORDINATES": 40904.408200, "Y_COORDINATES": 38793.612200, "LATITUDE": 1.367101, "LONGTITUDE": 103.949261, "Level_of_education_level_of_education": "Secondary Schools (Excluding Mixed Level Schools)" }, "geometry": { "type": "Point", "coordinates": [ 40904.4082, 38793.6122 ] } },
{ "type": "Feature", "properties": { "ALL_SCHOOLS": "CORPORATION PRIMARY SCHOOL", "ADDRESS": "31 JURONG WEST STREET 24", "POSTALCODE": 648347, "X_COORDINATES": 14006.523500, "Y_COORDINATES": 37066.277200, "LATITUDE": 1.351499, "LONGTITUDE": 103.707576, "Level_of_education_level_of_education": "Primary Schools (Excluding Mixed Level Schools)" }, "geometry": { "type": "Point", "coordinates": [ 14006.5235, 37066.2772 ] } },
{ "type": "Feature", "properties": { "ALL_SCHOOLS": "CRESCENT GIRLS' SCHOOL", "ADDRESS": "357 TANGLIN ROAD", "POSTALCODE": 247961, "X_COORDINATES": 26244.477600, "Y_COORDINATES": 30634.220500, "LATITUDE": 1.293338, "LONGTITUDE": 103.817566, "Level_of_education_level_of_education": "Secondary Schools (Excluding Mixed Level Schools)" }, "geometry": { "type": "Point", "coordinates": [ 26244.4776, 30634.2205 ] } },
{ "type": "Feature", "properties": { "ALL_SCHOOLS": "CREST SECONDARY SCHOOL", "ADDRESS": "561 JURONG EAST STREET 24", "POSTALCODE": 609561, "X_COORDINATES": 17897.669900, "Y_COORDINATES": 36189.192100, "LATITUDE": 1.343466, "LONGTITUDE": 103.742462, "Level_of_education_level_of_education": "Secondary Schools (Excluding Mixed Level Schools)" }, "geometry": { "type": "Point", "coordinates": [ 17897.6699, 36189.1921 ] } },
{ "type": "Feature", "properties": { "ALL_SCHOOLS": "DA QIAO PRIMARY SCHOOL", "ADDRESS": "8 ANG MO KIO STREET 54", "POSTALCODE": 569185, "X_COORDINATES": 30857.319700, "Y_COORDINATES": 39313.479400, "LATITUDE": 1.371969, "LONGTITUDE": 103.858650, "Level_of_education_level_of_education": "Primary Schools (Excluding Mixed Level Schools)" }, "geometry": { "type": "Point", "coordinates": [ 30857.3197, 39313.4794 ] } },
{ "type": "Feature", "properties": { "ALL_SCHOOLS": "DAMAI PRIMARY SCHOOL", "ADDRESS": "52 BEDOK RESERVOIR CRESCENT", "POSTALCODE": 479226, "X_COORDINATES": 37718.781900, "Y_COORDINATES": 35389.027800, "LATITUDE": 1.335847, "LONGTITUDE": 103.921064, "Level_of_education_level_of_education": "Primary Schools (Excluding Mixed Level Schools)" }, "geometry": { "type": "Point", "coordinates": [ 37718.7819, 35389.0278 ] } },
{ "type": "Feature", "properties": { "ALL_SCHOOLS": "DAMAI SECONDARY SCHOOL", "ADDRESS": "4800 BEDOK RESERVOIR ROAD", "POSTALCODE": 479229, "X_COORDINATES": 38435.952900, "Y_COORDINATES": 35456.419600, "LATITUDE": 1.336405, "LONGTITUDE": 103.927061, "Level_of_education_level_of_education": "Secondary Schools (Excluding Mixed Level Schools)" }, "geometry": { "type": "Point", "coordinates": [ 38435.9529, 35456.4196 ] } },
{ "type": "Feature", "properties": { "ALL_SCHOOLS": "DAZHONG PRIMARY SCHOOL", "ADDRESS": "35 BUKIT BATOK STREET 31", "POSTALCODE": 659441, "X_COORDINATES": 18523.000200, "Y_COORDINATES": 37903.521200, "LATITUDE": 1.359000, "LONGTITUDE": 103.748528, "Level_of_education_level_of_education": "Primary Schools (Excluding Mixed Level Schools)" }, "geometry": { "type": "Point", "coordinates": [ 18523.0002, 37903.5212 ] } },
{ "type": "Feature", "properties": { "ALL_SCHOOLS": "DE LA SALLE SCHOOL", "ADDRESS": "11 CHOA CHU KANG ST 52", "POSTALCODE": 689285, "X_COORDINATES": 17998.109700, "Y_COORDINATES": 41885.671300, "LATITUDE": 1.394304, "LONGTITUDE": 103.743605, "Level_of_education_level_of_education": "Primary Schools (Excluding Mixed Level Schools)" }, "geometry": { "type": "Point", "coordinates": [ 17998.1097, 41885.6713 ] } },
{ "type": "Feature", "properties": { "ALL_SCHOOLS": "DEYI SECONDARY SCHOOL", "ADDRESS": "1 ANG MO KIO STREET 42", "POSTALCODE": 569277, "X_COORDINATES": 30139.993700, "Y_COORDINATES": 38670.668600, "LATITUDE": 1.365893, "LONGTITUDE": 103.852329, "Level_of_education_level_of_education": "Secondary Schools (Excluding Mixed Level Schools)" }, "geometry": { "type": "Point", "coordinates": [ 30139.9937, 38670.6686 ] } },
{ "type": "Feature", "properties": { "ALL_SCHOOLS": "DUNEARN SECONDARY SCHOOL", "ADDRESS": "21 BUKIT BATOK WEST AVENUE 2", "POSTALCODE": 659204, "X_COORDINATES": 18195.100000, "Y_COORDINATES": 38415.292100, "LATITUDE": 1.363886, "LONGTITUDE": 103.745180, "Level_of_education_level_of_education": "Secondary Schools (Excluding Mixed Level Schools)" }, "geometry": { "type": "Point", "coordinates": [ 18195.1, 38415.2921 ] } },
{ "type": "Feature", "properties": { "ALL_SCHOOLS": "DUNMAN HIGH SCHOOL", "ADDRESS": "10 TANJONG RHU ROAD", "POSTALCODE": 436895, "X_COORDINATES": 33555.826800, "Y_COORDINATES": 31351.889000, "LATITUDE": 1.298360, "LONGTITUDE": 103.882979, "Level_of_education_level_of_education": "Mixed Level Schools" }, "geometry": { "type": "Point", "coordinates": [ 33555.8268, 31351.889 ] } },
{ "type": "Feature", "properties": { "ALL_SCHOOLS": "DUNMAN SECONDARY SCHOOL", "ADDRESS": "21 TAMPINES STREET 45", "POSTALCODE": 529093, "X_COORDINATES": 41676.087100, "Y_COORDINATES": 38068.295000, "LATITUDE": 1.360673, "LONGTITUDE": 103.956206, "Level_of_education_level_of_education": "Secondary Schools (Excluding Mixed Level Schools)" }, "geometry": { "type": "Point", "coordinates": [ 41676.0871, 38068.295 ] } },
{ "type": "Feature", "properties": { "ALL_SCHOOLS": "EAST COAST PRIMARY SCHOOL", "ADDRESS": "8 CHAI CHEE LANE", "POSTALCODE": 469031, "X_COORDINATES": 37640.244000, "Y_COORDINATES": 34637.213200, "LATITUDE": 1.329372, "LONGTITUDE": 103.919612, "Level_of_education_level_of_education": "Primary Schools (Excluding Mixed Level Schools)" }, "geometry": { "type": "Point", "coordinates": [ 37640.244, 34637.2132 ] } },
{ "type": "Feature", "properties": { "ALL_SCHOOLS": "EAST SPRING PRIMARY SCHOOL", "ADDRESS": "31 TAMPINES ST 33", "POSTALCODE": 529258, "X_COORDINATES": 42284.273300, "Y_COORDINATES": 37198.818300, "LATITUDE": 1.353490, "LONGTITUDE": 103.961799, "Level_of_education_level_of_education": "Primary Schools (Excluding Mixed Level Schools)" }, "geometry": { "type": "Point", "coordinates": [ 42284.2733, 37198.8183 ] } },
{ "type": "Feature", "properties": { "ALL_SCHOOLS": "EAST SPRING SECONDARY SCHOOL", "ADDRESS": "30 TAMPINES STREET 34", "POSTALCODE": 529231, "X_COORDINATES": 42169.275600, "Y_COORDINATES": 37590.366700, "LATITUDE": 1.355997, "LONGTITUDE": 103.960586, "Level_of_education_level_of_education": "Secondary Schools (Excluding Mixed Level Schools)" }, "geometry": { "type": "Point", "coordinates": [ 42169.2756, 37590.3667 ] } },
{ "type": "Feature", "properties": { "ALL_SCHOOLS": "EAST VIEW PRIMARY SCHOOL", "ADDRESS": "4 TAMPINES STREET 91", "POSTALCODE": 528907, "X_COORDINATES": 39833.518300, "Y_COORDINATES": 36558.467400, "LATITUDE": 1.346782, "LONGTITUDE": 103.939586, "Level_of_education_level_of_education": "Primary Schools (Excluding Mixed Level Schools)" }, "geometry": { "type": "Point", "coordinates": [ 39833.5183, 36558.4674 ] } },
{ "type": "Feature", "properties": { "ALL_SCHOOLS": "EAST VIEW SECONDARY SCHOOL", "ADDRESS": "3 TAMPINES STREET 42", "POSTALCODE": 529177, "X_COORDINATES": 40939.365600, "Y_COORDINATES": 37815.511300, "LATITUDE": 1.357878, "LONGTITUDE": 103.949913, "Level_of_education_level_of_education": "Secondary Schools (Excluding Mixed Level Schools)" }, "geometry": { "type": "Point", "coordinates": [ 40939.3656, 37815.5113 ] } },
{ "type": "Feature", "properties": { "ALL_SCHOOLS": "EDGEFIELD PRIMARY SCHOOL", "ADDRESS": "41 EDGEFIELD PLAINS", "POSTALCODE": 828869, "X_COORDINATES": 36286.355000, "Y_COORDINATES": 42416.606000, "LATITUDE": 1.399887, "LONGTITUDE": 103.907469, "Level_of_education_level_of_education": "Primary Schools (Excluding Mixed Level Schools)" }, "geometry": { "type": "Point", "coordinates": [ 36286.355, 42416.606 ] } },
{ "type": "Feature", "properties": { "ALL_SCHOOLS": "EDGEFIELD SECONDARY SCHOOL", "ADDRESS": "36 PUNGGOL FIELD", "POSTALCODE": 828814, "X_COORDINATES": 35659.031200, "Y_COORDINATES": 42450.340600, "LATITUDE": 1.399882, "LONGTITUDE": 103.902302, "Level_of_education_level_of_education": "Secondary Schools (Excluding Mixed Level Schools)" }, "geometry": { "type": "Point", "coordinates": [ 35659.0312, 42450.3406 ] } },
{ "type": "Feature", "properties": { "ALL_SCHOOLS": "ELIAS PARK PRIMARY SCHOOL", "ADDRESS": "11 PASIR RIS STREET 52", "POSTALCODE": 518866, "X_COORDINATES": 40468.586100, "Y_COORDINATES": 39669.974600, "LATITUDE": 1.374697, "LONGTITUDE": 103.945633, "Level_of_education_level_of_education": "Primary Schools (Excluding Mixed Level Schools)" }, "geometry": { "type": "Point", "coordinates": [ 40468.5861, 39669.9746 ] } },
{ "type": "Feature", "properties": { "ALL_SCHOOLS": "ENDEAVOUR PRIMARY SCHOOL", "ADDRESS": "10 ADMIRALTY LINK", "POSTALCODE": 757521, "X_COORDINATES": 26231.559000, "Y_COORDINATES": 48420.950300, "LATITUDE": 1.454201, "LONGTITUDE": 103.817423, "Level_of_education_level_of_education": "Primary Schools (Excluding Mixed Level Schools)" }, "geometry": { "type": "Point", "coordinates": [ 26231.559, 48420.9503 ] } },
{ "type": "Feature", "properties": { "ALL_SCHOOLS": "EUNOS PRIMARY SCHOOL", "ADDRESS": "95 JALAN EUNOS", "POSTALCODE": 419529, "X_COORDINATES": 35907.844100, "Y_COORDINATES": 34069.766100, "LATITUDE": 1.324223, "LONGTITUDE": 103.904727, "Level_of_education_level_of_education": "Primary Schools (Excluding Mixed Level Schools)" }, "geometry": { "type": "Point", "coordinates": [ 35907.8441, 34069.7661 ] } },
{ "type": "Feature", "properties": { "ALL_SCHOOLS": "EVERGREEN PRIMARY SCHOOL", "ADDRESS": "31 WOODLANDS CIRCLE", "POSTALCODE": 738908, "X_COORDINATES": 23689.137400, "Y_COORDINATES": 47312.395100, "LATITUDE": 1.444082, "LONGTITUDE": 103.795038, "Level_of_education_level_of_education": "Primary Schools (Excluding Mixed Level Schools)" }, "geometry": { "type": "Point", "coordinates": [ 23689.1374, 47312.3951 ] } },
{ "type": "Feature", "properties": { "ALL_SCHOOLS": "EVERGREEN SECONDARY SCHOOL", "ADDRESS": "11 WOODLANDS STREET 83", "POSTALCODE": 738489, "X_COORDINATES": 23599.022500, "Y_COORDINATES": 46988.433400, "LATITUDE": 1.441283, "LONGTITUDE": 103.794011, "Level_of_education_level_of_education": "Secondary Schools (Excluding Mixed Level Schools)" }, "geometry": { "type": "Point", "coordinates": [ 23599.0225, 46988.4334 ] } },
{ "type": "Feature", "properties": { "ALL_SCHOOLS": "FAIRFIELD METHODIST SCHOOL (PRIMARY)", "ADDRESS": "100 DOVER ROAD", "POSTALCODE": 139648, "X_COORDINATES": 22699.613700, "Y_COORDINATES": 31461.278700, "LATITUDE": 1.300744, "LONGTITUDE": 103.785809, "Level_of_education_level_of_education": "Primary Schools (Excluding Mixed Level Schools)" }, "geometry": { "type": "Point", "coordinates": [ 22699.6137, 31461.2787 ] } },
{ "type": "Feature", "properties": { "ALL_SCHOOLS": "FAIRFIELD METHODIST SCHOOL (SECONDARY)", "ADDRESS": "102 DOVER ROAD", "POSTALCODE": 139649, "X_COORDINATES": 22549.183400, "Y_COORDINATES": 31576.139100, "LATITUDE": 1.301925, "LONGTITUDE": 103.784460, "Level_of_education_level_of_education": "Secondary Schools (Excluding Mixed Level Schools)" }, "geometry": { "type": "Point", "coordinates": [ 22549.1834, 31576.1391 ] } },
{ "type": "Feature", "properties": { "ALL_SCHOOLS": "FAJAR SECONDARY SCHOOL", "ADDRESS": "31 GANGSA ROAD", "POSTALCODE": 678972, "X_COORDINATES": 20287.635600, "Y_COORDINATES": 39730.247700, "LATITUDE": 1.375887, "LONGTITUDE": 103.764493, "Level_of_education_level_of_education": "Secondary Schools (Excluding Mixed Level Schools)" }, "geometry": { "type": "Point", "coordinates": [ 20287.6356, 39730.2477 ] } },
{ "type": "Feature", "properties": { "ALL_SCHOOLS": "FARRER PARK PRIMARY SCHOOL", "ADDRESS": "2 FARRER PARK ROAD", "POSTALCODE": 217567, "X_COORDINATES": 29956.943600, "Y_COORDINATES": 32755.566200, "LATITUDE": 1.312139, "LONGTITUDE": 103.850992, "Level_of_education_level_of_education": "Primary Schools (Excluding Mixed Level Schools)" }, "geometry": { "type": "Point", "coordinates": [ 29956.9436, 32755.5662 ] } },
{ "type": "Feature", "properties": { "ALL_SCHOOLS": "FENGSHAN PRIMARY SCHOOL", "ADDRESS": "307 BEDOK NORTH ROAD", "POSTALCODE": 469680, "X_COORDINATES": 38969.473400, "Y_COORDINATES": 34726.310200, "LATITUDE": 1.329819, "LONGTITUDE": 103.931902, "Level_of_education_level_of_education": "Primary Schools (Excluding Mixed Level Schools)" }, "geometry": { "type": "Point", "coordinates": [ 38969.4734, 34726.3102 ] } },
{ "type": "Feature", "properties": { "ALL_SCHOOLS": "FERNVALE PRIMARY SCHOOL", "ADDRESS": "1 FERNVALE LANE", "POSTALCODE": 797701, "X_COORDINATES": 32538.549300, "Y_COORDINATES": 41322.415600, "LATITUDE": 1.389948, "LONGTITUDE": 103.873919, "Level_of_education_level_of_education": "Primary Schools (Excluding Mixed Level Schools)" }, "geometry": { "type": "Point", "coordinates": [ 32538.5493, 41322.4156 ] } },
{ "type": "Feature", "properties": { "ALL_SCHOOLS": "FIRST TOA PAYOH PRIMARY SCHOOL", "ADDRESS": "7 LORONG 8 TOA PAYOH", "POSTALCODE": 319252, "X_COORDINATES": 30471.881800, "Y_COORDINATES": 35831.634500, "LATITUDE": 1.340145, "LONGTITUDE": 103.855651, "Level_of_education_level_of_education": "Primary Schools (Excluding Mixed Level Schools)" }, "geometry": { "type": "Point", "coordinates": [ 30471.8818, 35831.6345 ] } },
{ "type": "Feature", "properties": { "ALL_SCHOOLS": "FIRST TOA PAYOH SECONDARY SCHOOL", "ADDRESS": "580 TOA PAYOH EAST", "POSTALCODE": 319133, "X_COORDINATES": 30816.754700, "Y_COORDINATES": 34993.246400, "LATITUDE": 1.333187, "LONGTITUDE": 103.858640, "Level_of_education_level_of_education": "Secondary Schools (Excluding Mixed Level Schools)" }, "geometry": { "type": "Point", "coordinates": [ 30816.7547, 34993.2464 ] } },
{ "type": "Feature", "properties": { "ALL_SCHOOLS": "FRONTIER PRIMARY SCHOOL", "ADDRESS": "20 JURONG WEST STREET 61", "POSTALCODE": 648200, "X_COORDINATES": 13127.741700, "Y_COORDINATES": 35425.126400, "LATITUDE": 14.484775, "LONGTITUDE": 121.023241, "Level_of_education_level_of_education": "Primary Schools (Excluding Mixed Level Schools)" }, "geometry": { "type": "Point", "coordinates": [ 13127.7417, 35425.1264 ] } },
{ "type": "Feature", "properties": { "ALL_SCHOOLS": "FUCHUN PRIMARY SCHOOL", "ADDRESS": "23 WOODLANDS AVENUE 1", "POSTALCODE": 739063, "X_COORDINATES": 21863.366100, "Y_COORDINATES": 45818.467400, "LATITUDE": 1.430200, "LONGTITUDE": 103.778088, "Level_of_education_level_of_education": "Primary Schools (Excluding Mixed Level Schools)" }, "geometry": { "type": "Point", "coordinates": [ 21863.3661, 45818.4674 ] } },
{ "type": "Feature", "properties": { "ALL_SCHOOLS": "FUCHUN SECONDARY SCHOOL", "ADDRESS": "21 WOODLANDS AVENUE 1", "POSTALCODE": 739062, "X_COORDINATES": 21749.055400, "Y_COORDINATES": 45839.946100, "LATITUDE": 1.430948, "LONGTITUDE": 103.777326, "Level_of_education_level_of_education": "Secondary Schools (Excluding Mixed Level Schools)" }, "geometry": { "type": "Point", "coordinates": [ 21749.0554, 45839.9461 ] } },
{ "type": "Feature", "properties": { "ALL_SCHOOLS": "FUHUA PRIMARY SCHOOL", "ADDRESS": "65 JURONG EAST STREET 13", "POSTALCODE": 609647, "X_COORDINATES": 17243.970500, "Y_COORDINATES": 35398.466300, "LATITUDE": 1.336524, "LONGTITUDE": 103.736118, "Level_of_education_level_of_education": "Primary Schools (Excluding Mixed Level Schools)" }, "geometry": { "type": "Point", "coordinates": [ 17243.9705, 35398.4663 ] } },
{ "type": "Feature", "properties": { "ALL_SCHOOLS": "FUHUA SECONDARY SCHOOL", "ADDRESS": "5 JURONG WEST STREET 41", "POSTALCODE": 649410, "X_COORDINATES": 16114.593000, "Y_COORDINATES": 36571.750700, "LATITUDE": 1.346902, "LONGTITUDE": 103.726756, "Level_of_education_level_of_education": "Secondary Schools (Excluding Mixed Level Schools)" }, "geometry": { "type": "Point", "coordinates": [ 16114.593, 36571.7507 ] } },
{ "type": "Feature", "properties": { "ALL_SCHOOLS": "GAN ENG SENG PRIMARY SCHOOL", "ADDRESS": "100 REDHILL CLOSE", "POSTALCODE": 158901, "X_COORDINATES": 26022.217100, "Y_COORDINATES": 29780.108100, "LATITUDE": 1.285631, "LONGTITUDE": 103.815421, "Level_of_education_level_of_education": "Primary Schools (Excluding Mixed Level Schools)" }, "geometry": { "type": "Point", "coordinates": [ 26022.2171, 29780.1081 ] } },
{ "type": "Feature", "properties": { "ALL_SCHOOLS": "GAN ENG SENG SCHOOL", "ADDRESS": "1 HENDERSON ROAD", "POSTALCODE": 159561, "X_COORDINATES": 26933.281300, "Y_COORDINATES": 30164.459100, "LATITUDE": 1.289088, "LONGTITUDE": 103.823727, "Level_of_education_level_of_education": "Secondary Schools (Excluding Mixed Level Schools)" }, "geometry": { "type": "Point", "coordinates": [ 26933.2813, 30164.4591 ] } },
{ "type": "Feature", "properties": { "ALL_SCHOOLS": "GEYLANG METHODIST SCHOOL (PRIMARY)", "ADDRESS": "4 GEYLANG EAST CENTRAL", "POSTALCODE": 389706, "X_COORDINATES": 33636.377200, "Y_COORDINATES": 33325.430100, "LATITUDE": 1.318207, "LONGTITUDE": 103.883360, "Level_of_education_level_of_education": "Primary Schools (Excluding Mixed Level Schools)" }, "geometry": { "type": "Point", "coordinates": [ 33636.3772, 33325.4301 ] } },
{ "type": "Feature", "properties": { "ALL_SCHOOLS": "GEYLANG METHODIST SCHOOL (SECONDARY)", "ADDRESS": "2 GEYLANG EAST CENTRAL", "POSTALCODE": 389705, "X_COORDINATES": 33473.819800, "Y_COORDINATES": 33325.605600, "LATITUDE": 1.318124, "LONGTITUDE": 103.882900, "Level_of_education_level_of_education": "Secondary Schools (Excluding Mixed Level Schools)" }, "geometry": { "type": "Point", "coordinates": [ 33473.8198, 33325.6056 ] } },
{ "type": "Feature", "properties": { "ALL_SCHOOLS": "GONGSHANG PRIMARY SCHOOL", "ADDRESS": "1 TAMPINES STREET 42", "POSTALCODE": 529176, "X_COORDINATES": 40886.942700, "Y_COORDINATES": 37702.219200, "LATITUDE": 1.357339, "LONGTITUDE": 103.948893, "Level_of_education_level_of_education": "Primary Schools (Excluding Mixed Level Schools)" }, "geometry": { "type": "Point", "coordinates": [ 40886.9427, 37702.2192 ] } },
{ "type": "Feature", "properties": { "ALL_SCHOOLS": "GREENDALE PRIMARY SCHOOL", "ADDRESS": "50 EDGEDALE PLAINS", "POSTALCODE": 828848, "X_COORDINATES": 36794.148700, "Y_COORDINATES": 42042.168200, "LATITUDE": 1.396421, "LONGTITUDE": 103.912588, "Level_of_education_level_of_education": "Primary Schools (Excluding Mixed Level Schools)" }, "geometry": { "type": "Point", "coordinates": [ 36794.1487, 42042.1682 ] } },
{ "type": "Feature", "properties": { "ALL_SCHOOLS": "GREENDALE SECONDARY SCHOOL", "ADDRESS": "51 EDGEDALE PLAINS", "POSTALCODE": 828866, "X_COORDINATES": 36722.822400, "Y_COORDINATES": 42094.422400, "LATITUDE": 1.396986, "LONGTITUDE": 103.911718, "Level_of_education_level_of_education": "Secondary Schools (Excluding Mixed Level Schools)" }, "geometry": { "type": "Point", "coordinates": [ 36722.8224, 42094.4224 ] } },
{ "type": "Feature", "properties": { "ALL_SCHOOLS": "GREENRIDGE PRIMARY SCHOOL", "ADDRESS": "11 JELAPANG ROAD", "POSTALCODE": 677744, "X_COORDINATES": 20708.007300, "Y_COORDINATES": 40870.205000, "LATITUDE": 1.385851, "LONGTITUDE": 103.767546, "Level_of_education_level_of_education": "Primary Schools (Excluding Mixed Level Schools)" }, "geometry": { "type": "Point", "coordinates": [ 20708.0073, 40870.205 ] } },
{ "type": "Feature", "properties": { "ALL_SCHOOLS": "GREENRIDGE SECONDARY SCHOOL", "ADDRESS": "32 BUKIT PANJANG RING ROAD", "POSTALCODE": 679938, "X_COORDINATES": 21355.965700, "Y_COORDINATES": 40450.275300, "LATITUDE": 1.382060, "LONGTITUDE": 103.773836, "Level_of_education_level_of_education": "Secondary Schools (Excluding Mixed Level Schools)" }, "geometry": { "type": "Point", "coordinates": [ 21355.9657, 40450.2753 ] } },
{ "type": "Feature", "properties": { "ALL_SCHOOLS": "GREENVIEW SECONDARY SCHOOL", "ADDRESS": "15 PASIR RIS STREET 21", "POSTALCODE": 518969, "X_COORDINATES": 42399.975100, "Y_COORDINATES": 39030.791800, "LATITUDE": 1.369233, "LONGTITUDE": 103.962377, "Level_of_education_level_of_education": "Secondary Schools (Excluding Mixed Level Schools)" }, "geometry": { "type": "Point", "coordinates": [ 42399.9751, 39030.7918 ] } },
{ "type": "Feature", "properties": { "ALL_SCHOOLS": "GREENWOOD PRIMARY SCHOOL", "ADDRESS": "11 WOODLANDS DR 62", "POSTALCODE": 737942, "X_COORDINATES": 24807.325500, "Y_COORDINATES": 46865.639500, "LATITUDE": 1.439850, "LONGTITUDE": 103.804609, "Level_of_education_level_of_education": "Primary Schools (Excluding Mixed Level Schools)" }, "geometry": { "type": "Point", "coordinates": [ 24807.3255, 46865.6395 ] } },
{ "type": "Feature", "properties": { "ALL_SCHOOLS": "GUANGYANG PRIMARY SCHOOL", "ADDRESS": "6 BISHAN STREET 12", "POSTALCODE": 579806, "X_COORDINATES": 29795.610200, "Y_COORDINATES": 36425.097900, "LATITUDE": 1.346017, "LONGTITUDE": 103.849681, "Level_of_education_level_of_education": "Primary Schools (Excluding Mixed Level Schools)" }, "geometry": { "type": "Point", "coordinates": [ 29795.6102, 36425.0979 ] } },
{ "type": "Feature", "properties": { "ALL_SCHOOLS": "GUANGYANG SECONDARY SCHOOL", "ADDRESS": "8 BISHAN STREET 12", "POSTALCODE": 579807, "X_COORDINATES": 29917.693400, "Y_COORDINATES": 36312.659300, "LATITUDE": 1.344693, "LONGTITUDE": 103.850566, "Level_of_education_level_of_education": "Secondary Schools (Excluding Mixed Level Schools)" }, "geometry": { "type": "Point", "coordinates": [ 29917.6934, 36312.6593 ] } },
{ "type": "Feature", "properties": { "ALL_SCHOOLS": "HAI SING CATHOLIC SCHOOL", "ADDRESS": "9 PASIR RIS DRIVE 6", "POSTALCODE": 519421, "X_COORDINATES": 41536.973200, "Y_COORDINATES": 39594.103700, "LATITUDE": 1.374513, "LONGTITUDE": 103.954463, "Level_of_education_level_of_education": "Secondary Schools (Excluding Mixed Level Schools)" }, "geometry": { "type": "Point", "coordinates": [ 41536.9732, 39594.1037 ] } },
{ "type": "Feature", "properties": { "ALL_SCHOOLS": "HAIG GIRLS' SCHOOL", "ADDRESS": "51 KOON SENG ROAD", "POSTALCODE": 427072, "X_COORDINATES": 35758.837300, "Y_COORDINATES": 32681.823600, "LATITUDE": 1.311559, "LONGTITUDE": 103.902621, "Level_of_education_level_of_education": "Primary Schools (Excluding Mixed Level Schools)" }, "geometry": { "type": "Point", "coordinates": [ 35758.8373, 32681.8236 ] } },
{ "type": "Feature", "properties": { "ALL_SCHOOLS": "HENDERSON SECONDARY SCHOOL", "ADDRESS": "100 HENDERSON RD", "POSTALCODE": 159544, "X_COORDINATES": 26465.025600, "Y_COORDINATES": 29725.158000, "LATITUDE": 1.285033, "LONGTITUDE": 103.819595, "Level_of_education_level_of_education": "Secondary Schools (Excluding Mixed Level Schools)" }, "geometry": { "type": "Point", "coordinates": [ 26465.0256, 29725.158 ] } },
{ "type": "Feature", "properties": { "ALL_SCHOOLS": "HENRY PARK PRIMARY SCHOOL", "ADDRESS": "1 HOLLAND GROVE ROAD", "POSTALCODE": 278790, "X_COORDINATES": 22534.502200, "Y_COORDINATES": 33222.421400, "LATITUDE": 1.316871, "LONGTITUDE": 103.784132, "Level_of_education_level_of_education": "Primary Schools (Excluding Mixed Level Schools)" }, "geometry": { "type": "Point", "coordinates": [ 22534.5022, 33222.4214 ] } },
{ "type": "Feature", "properties": { "ALL_SCHOOLS": "HILLGROVE SECONDARY SCHOOL", "ADDRESS": "10 BUKIT BATOK STREET 52", "POSTALCODE": 659250, "X_COORDINATES": 19067.279500, "Y_COORDINATES": 37204.281800, "LATITUDE": 1.352752, "LONGTITUDE": 103.753048, "Level_of_education_level_of_education": "Secondary Schools (Excluding Mixed Level Schools)" }, "geometry": { "type": "Point", "coordinates": [ 19067.2795, 37204.2818 ] } },
{ "type": "Feature", "properties": { "ALL_SCHOOLS": "HOLY INNOCENTS' HIGH SCHOOL", "ADDRESS": "1191 UPPER SERANGOON ROAD", "POSTALCODE": 534786, "X_COORDINATES": 35020.062800, "Y_COORDINATES": 39284.095500, "LATITUDE": 1.371204, "LONGTITUDE": 103.896018, "Level_of_education_level_of_education": "Secondary Schools (Excluding Mixed Level Schools)" }, "geometry": { "type": "Point", "coordinates": [ 35020.0628, 39284.0955 ] } },
{ "type": "Feature", "properties": { "ALL_SCHOOLS": "HOLY INNOCENTS' PRIMARY SCHOOL", "ADDRESS": "5 LORONG LOW KOON", "POSTALCODE": 536451, "X_COORDINATES": 34717.966700, "Y_COORDINATES": 38752.526500, "LATITUDE": 1.366573, "LONGTITUDE": 103.893711, "Level_of_education_level_of_education": "Primary Schools (Excluding Mixed Level Schools)" }, "geometry": { "type": "Point", "coordinates": [ 34717.9667, 38752.5265 ] } },
{ "type": "Feature", "properties": { "ALL_SCHOOLS": "HONG KAH SECONDARY SCHOOL", "ADDRESS": "931 JURONG WEST STREET 42", "POSTALCODE": 649370, "X_COORDINATES": 16148.793100, "Y_COORDINATES": 37139.235100, "LATITUDE": 1.351759, "LONGTITUDE": 103.726968, "Level_of_education_level_of_education": "Secondary Schools (Excluding Mixed Level Schools)" }, "geometry": { "type": "Point", "coordinates": [ 16148.7931, 37139.2351 ] } },
{ "type": "Feature", "properties": { "ALL_SCHOOLS": "HONG WEN SCHOOL", "ADDRESS": "30 TOWNER ROAD", "POSTALCODE": 327829, "X_COORDINATES": 30705.266800, "Y_COORDINATES": 33779.365900, "LATITUDE": 1.321704, "LONGTITUDE": 103.857647, "Level_of_education_level_of_education": "Primary Schools (Excluding Mixed Level Schools)" }, "geometry": { "type": "Point", "coordinates": [ 30705.2668, 33779.3659 ] } },
{ "type": "Feature", "properties": { "ALL_SCHOOLS": "HORIZON PRIMARY SCHOOL", "ADDRESS": "61 EDGEDALE PLAINS", "POSTALCODE": 828819, "X_COORDINATES": 36912.524700, "Y_COORDINATES": 42380.799900, "LATITUDE": 1.400025, "LONGTITUDE": 103.913058, "Level_of_education_level_of_education": "Primary Schools (Excluding Mixed Level Schools)" }, "geometry": { "type": "Point", "coordinates": [ 36912.5247, 42380.7999 ] } },
{ "type": "Feature", "properties": { "ALL_SCHOOLS": "HOUGANG PRIMARY SCHOOL", "ADDRESS": "1 HOUGANG ST 93", "POSTALCODE": 534238, "X_COORDINATES": 33324.848800, "Y_COORDINATES": 40002.215400, "LATITUDE": 1.377340, "LONGTITUDE": 103.881046, "Level_of_education_level_of_education": "Primary Schools (Excluding Mixed Level Schools)" }, "geometry": { "type": "Point", "coordinates": [ 33324.8488, 40002.2154 ] } },
{ "type": "Feature", "properties": { "ALL_SCHOOLS": "HOUGANG SECONDARY SCHOOL", "ADDRESS": "2 HOUGANG STREET 93", "POSTALCODE": 534256, "X_COORDINATES": 33477.059200, "Y_COORDINATES": 39958.025300, "LATITUDE": 1.377661, "LONGTITUDE": 103.882530, "Level_of_education_level_of_education": "Secondary Schools (Excluding Mixed Level Schools)" }, "geometry": { "type": "Point", "coordinates": [ 33477.0592, 39958.0253 ] } },
{ "type": "Feature", "properties": { "ALL_SCHOOLS": "HUA YI SECONDARY SCHOOL", "ADDRESS": "60 JURONG WEST ST 42", "POSTALCODE": 649371, "X_COORDINATES": 15592.832200, "Y_COORDINATES": 37161.091400, "LATITUDE": 1.351473, "LONGTITUDE": 103.721580, "Level_of_education_level_of_education": "Secondary Schools (Excluding Mixed Level Schools)" }, "geometry": { "type": "Point", "coordinates": [ 15592.8322, 37161.0914 ] } },
{ "type": "Feature", "properties": { "ALL_SCHOOLS": "HUAMIN PRIMARY SCHOOL", "ADDRESS": "21 YISHUN AVENUE 11", "POSTALCODE": 768857, "X_COORDINATES": 29215.417800, "Y_COORDINATES": 45412.926700, "LATITUDE": 1.426943, "LONGTITUDE": 103.843853, "Level_of_education_level_of_education": "Primary Schools (Excluding Mixed Level Schools)" }, "geometry": { "type": "Point", "coordinates": [ 29215.4178, 45412.9267 ] } },
{ "type": "Feature", "properties": { "ALL_SCHOOLS": "HWA CHONG INSTITUTION", "ADDRESS": "661 BUKIT TIMAH ROAD", "POSTALCODE": 269734, "X_COORDINATES": 24794.241000, "Y_COORDINATES": 34152.739300, "LATITUDE": 1.324644, "LONGTITUDE": 103.805900, "Level_of_education_level_of_education": "Mixed Level Schools" }, "geometry": { "type": "Point", "coordinates": [ 24794.241, 34152.7393 ] } },
{ "type": "Feature", "properties": { "ALL_SCHOOLS": "INNOVA JUNIOR COLLEGE", "ADDRESS": "21 CHAMPIONS WAY", "POSTALCODE": 737902, "X_COORDINATES": 23021.635200, "Y_COORDINATES": 45780.459100, "LATITUDE": 1.429201, "LONGTITUDE": 103.788334, "Level_of_education_level_of_education": "Junior Colleges\/Centralised Institute (Excluding Mixed Level Schools)" }, "geometry": { "type": "Point", "coordinates": [ 23021.6352, 45780.4591 ] } },
{ "type": "Feature", "properties": { "ALL_SCHOOLS": "INNOVA PRIMARY SCHOOL", "ADDRESS": "80 WOODLANDS DRIVE 17", "POSTALCODE": 737888, "X_COORDINATES": 23246.897100, "Y_COORDINATES": 45633.472400, "LATITUDE": 1.428957, "LONGTITUDE": 103.790631, "Level_of_education_level_of_education": "Primary Schools (Excluding Mixed Level Schools)" }, "geometry": { "type": "Point", "coordinates": [ 23246.8971, 45633.4724 ] } },
{ "type": "Feature", "properties": { "ALL_SCHOOLS": "JIEMIN PRIMARY SCHOOL", "ADDRESS": "2 YISHUN STREET 71", "POSTALCODE": 768515, "X_COORDINATES": 27675.327200, "Y_COORDINATES": 45482.947800, "LATITUDE": 1.427671, "LONGTITUDE": 103.830498, "Level_of_education_level_of_education": "Primary Schools (Excluding Mixed Level Schools)" }, "geometry": { "type": "Point", "coordinates": [ 27675.3272, 45482.9478 ] } },
{ "type": "Feature", "properties": { "ALL_SCHOOLS": "JING SHAN PRIMARY SCHOOL", "ADDRESS": "5 ANG MO KIO ST 52", "POSTALCODE": 569228, "X_COORDINATES": 30057.988700, "Y_COORDINATES": 39322.445400, "LATITUDE": 1.371479, "LONGTITUDE": 103.851863, "Level_of_education_level_of_education": "Primary Schools (Excluding Mixed Level Schools)" }, "geometry": { "type": "Point", "coordinates": [ 30057.9887, 39322.4454 ] } },
{ "type": "Feature", "properties": { "ALL_SCHOOLS": "JUNYUAN PRIMARY SCHOOL", "ADDRESS": "2 TAMPINES STREET 91", "POSTALCODE": 528906, "X_COORDINATES": 39785.729300, "Y_COORDINATES": 36666.446100, "LATITUDE": 1.347973, "LONGTITUDE": 103.940012, "Level_of_education_level_of_education": "Primary Schools (Excluding Mixed Level Schools)" }, "geometry": { "type": "Point", "coordinates": [ 39785.7293, 36666.4461 ] } },
{ "type": "Feature", "properties": { "ALL_SCHOOLS": "JUNYUAN SECONDARY SCHOOL", "ADDRESS": "11 TAMPINES STREET 84", "POSTALCODE": 528933, "X_COORDINATES": 39157.562500, "Y_COORDINATES": 37267.762700, "LATITUDE": 1.353327, "LONGTITUDE": 103.933573, "Level_of_education_level_of_education": "Secondary Schools (Excluding Mixed Level Schools)" }, "geometry": { "type": "Point", "coordinates": [ 39157.5625, 37267.7627 ] } },
{ "type": "Feature", "properties": { "ALL_SCHOOLS": "JURONG JUNIOR COLLEGE", "ADDRESS": "800 CORPORATION ROAD", "POSTALCODE": 649809, "X_COORDINATES": 14660.972000, "Y_COORDINATES": 36950.862500, "LATITUDE": 1.350886, "LONGTITUDE": 103.713267, "Level_of_education_level_of_education": "Junior Colleges\/Centralised Institute (Excluding Mixed Level Schools)" }, "geometry": { "type": "Point", "coordinates": [ 14660.972, 36950.8625 ] } },
{ "type": "Feature", "properties": { "ALL_SCHOOLS": "JURONG PRIMARY SCHOOL", "ADDRESS": "320 JURONG EAST STREET 32", "POSTALCODE": 609476, "X_COORDINATES": 16832.847700, "Y_COORDINATES": 36756.427200, "LATITUDE": 1.348679, "LONGTITUDE": 103.732992, "Level_of_education_level_of_education": "Primary Schools (Excluding Mixed Level Schools)" }, "geometry": { "type": "Point", "coordinates": [ 16832.8477, 36756.4272 ] } },
{ "type": "Feature", "properties": { "ALL_SCHOOLS": "JURONG SECONDARY SCHOOL", "ADDRESS": "31 YUAN CHING ROAD", "POSTALCODE": 618652, "X_COORDINATES": 15845.055200, "Y_COORDINATES": 34706.722000, "LATITUDE": 1.330365, "LONGTITUDE": 103.724282, "Level_of_education_level_of_education": "Secondary Schools (Excluding Mixed Level Schools)" }, "geometry": { "type": "Point", "coordinates": [ 15845.0552, 34706.722 ] } },
{ "type": "Feature", "properties": { "ALL_SCHOOLS": "JURONG WEST PRIMARY SCHOOL", "ADDRESS": "30 JURONG WEST ST 61", "POSTALCODE": 648368, "X_COORDINATES": 13023.235900, "Y_COORDINATES": 35764.554900, "LATITUDE": 1.339037, "LONGTITUDE": 103.698854, "Level_of_education_level_of_education": "Primary Schools (Excluding Mixed Level Schools)" }, "geometry": { "type": "Point", "coordinates": [ 13023.2359, 35764.5549 ] } },
{ "type": "Feature", "properties": { "ALL_SCHOOLS": "JURONG WEST SECONDARY SCHOOL", "ADDRESS": "61 JURONG WEST STREET 65", "POSTALCODE": 648348, "X_COORDINATES": 13396.533800, "Y_COORDINATES": 35271.768800, "LATITUDE": 1.335276, "LONGTITUDE": 103.702086, "Level_of_education_level_of_education": "Secondary Schools (Excluding Mixed Level Schools)" }, "geometry": { "type": "Point", "coordinates": [ 13396.5338, 35271.7688 ] } },
{ "type": "Feature", "properties": { "ALL_SCHOOLS": "JURONGVILLE SECONDARY SCHOOL", "ADDRESS": "202 JURONG EAST AVENUE 1", "POSTALCODE": 609790, "X_COORDINATES": 16380.239500, "Y_COORDINATES": 37044.396600, "LATITUDE": 1.351493, "LONGTITUDE": 103.729161, "Level_of_education_level_of_education": "Secondary Schools (Excluding Mixed Level Schools)" }, "geometry": { "type": "Point", "coordinates": [ 16380.2395, 37044.3966 ] } },
{ "type": "Feature", "properties": { "ALL_SCHOOLS": "JUYING PRIMARY SCHOOL", "ADDRESS": "31 JURONG WEST STREET 91", "POSTALCODE": 649037, "X_COORDINATES": 11809.004100, "Y_COORDINATES": 35680.445400, "LATITUDE": 1.338370, "LONGTITUDE": 103.688061, "Level_of_education_level_of_education": "Primary Schools (Excluding Mixed Level Schools)" }, "geometry": { "type": "Point", "coordinates": [ 11809.0041, 35680.4454 ] } },
{ "type": "Feature", "properties": { "ALL_SCHOOLS": "JUYING SECONDARY SCHOOL", "ADDRESS": "33 JURONG WEST STREET 91", "POSTALCODE": 649038, "X_COORDINATES": 11739.267000, "Y_COORDINATES": 35595.017300, "LATITUDE": 1.338205, "LONGTITUDE": 103.687205, "Level_of_education_level_of_education": "Secondary Schools (Excluding Mixed Level Schools)" }, "geometry": { "type": "Point", "coordinates": [ 11739.267, 35595.0173 ] } },
{ "type": "Feature", "properties": { "ALL_SCHOOLS": "KEMING PRIMARY SCHOOL", "ADDRESS": "90 BUKIT BATOK EAST AVENUE 6", "POSTALCODE": 659762, "X_COORDINATES": 19445.428200, "Y_COORDINATES": 36407.331200, "LATITUDE": 1.344781, "LONGTITUDE": 103.756511, "Level_of_education_level_of_education": "Primary Schools (Excluding Mixed Level Schools)" }, "geometry": { "type": "Point", "coordinates": [ 19445.4282, 36407.3312 ] } },
{ "type": "Feature", "properties": { "ALL_SCHOOLS": "KENT RIDGE SECONDARY SCHOOL", "ADDRESS": "147 WEST COAST ROAD", "POSTALCODE": 127368, "X_COORDINATES": 20384.472200, "Y_COORDINATES": 31508.773400, "LATITUDE": 1.301511, "LONGTITUDE": 103.765385, "Level_of_education_level_of_education": "Secondary Schools (Excluding Mixed Level Schools)" }, "geometry": { "type": "Point", "coordinates": [ 20384.4722, 31508.7734 ] } },
{ "type": "Feature", "properties": { "ALL_SCHOOLS": "KHENG CHENG SCHOOL", "ADDRESS": "15 LORONG 3 TOA PAYOH", "POSTALCODE": 319580, "X_COORDINATES": 29539.095600, "Y_COORDINATES": 35500.816300, "LATITUDE": 1.337666, "LONGTITUDE": 103.847796, "Level_of_education_level_of_education": "Primary Schools (Excluding Mixed Level Schools)" }, "geometry": { "type": "Point", "coordinates": [ 29539.0956, 35500.8163 ] } },
{ "type": "Feature", "properties": { "ALL_SCHOOLS": "KONG HWA SCHOOL", "ADDRESS": "350 GUILLEMARD ROAD", "POSTALCODE": 399772, "X_COORDINATES": 34108.831500, "Y_COORDINATES": 32601.933600, "LATITUDE": 1.311292, "LONGTITUDE": 103.888386, "Level_of_education_level_of_education": "Primary Schools (Excluding Mixed Level Schools)" }, "geometry": { "type": "Point", "coordinates": [ 34108.8315, 32601.9336 ] } },
{ "type": "Feature", "properties": { "ALL_SCHOOLS": "KRANJI PRIMARY SCHOOL", "ADDRESS": "11 CHOA CHU KANG STREET 54", "POSTALCODE": 689189, "X_COORDINATES": 18434.154400, "Y_COORDINATES": 41718.017100, "LATITUDE": 1.393694, "LONGTITUDE": 103.747785, "Level_of_education_level_of_education": "Primary Schools (Excluding Mixed Level Schools)" }, "geometry": { "type": "Point", "coordinates": [ 18434.1544, 41718.0171 ] } },
{ "type": "Feature", "properties": { "ALL_SCHOOLS": "KRANJI SECONDARY SCHOOL", "ADDRESS": "61 CHOA CHU KANG STREET 51", "POSTALCODE": 689333, "X_COORDINATES": 17749.509300, "Y_COORDINATES": 41334.611500, "LATITUDE": 1.390468, "LONGTITUDE": 103.741661, "Level_of_education_level_of_education": "Secondary Schools (Excluding Mixed Level Schools)" }, "geometry": { "type": "Point", "coordinates": [ 17749.5093, 41334.6115 ] } },
{ "type": "Feature", "properties": { "ALL_SCHOOLS": "KUO CHUAN PRESBYTERIAN PRIMARY SCHOOL", "ADDRESS": "2 ANG MO KIO STREET 23", "POSTALCODE": 569341, "X_COORDINATES": 28756.062000, "Y_COORDINATES": 38923.029600, "LATITUDE": 1.368260, "LONGTITUDE": 103.840503, "Level_of_education_level_of_education": "Primary Schools (Excluding Mixed Level Schools)" }, "geometry": { "type": "Point", "coordinates": [ 28756.062, 38923.0296 ] } },
{ "type": "Feature", "properties": { "ALL_SCHOOLS": "KUO CHUAN PRESBYTERIAN SECONDARY SCHOOL", "ADDRESS": "10 BISHAN ST. 13", "POSTALCODE": 579795, "X_COORDINATES": 30400.843200, "Y_COORDINATES": 36913.792000, "LATITUDE": 1.350135, "LONGTITUDE": 103.854907, "Level_of_education_level_of_education": "Secondary Schools (Excluding Mixed Level Schools)" }, "geometry": { "type": "Point", "coordinates": [ 30400.8432, 36913.792 ] } },
{ "type": "Feature", "properties": { "ALL_SCHOOLS": "LAKESIDE PRIMARY SCHOOL", "ADDRESS": "161 CORPORATION WALK", "POSTALCODE": 618310, "X_COORDINATES": 15171.888900, "Y_COORDINATES": 35616.603200, "LATITUDE": 1.338216, "LONGTITUDE": 103.717603, "Level_of_education_level_of_education": "Primary Schools (Excluding Mixed Level Schools)" }, "geometry": { "type": "Point", "coordinates": [ 15171.8889, 35616.6032 ] } },
{ "type": "Feature", "properties": { "ALL_SCHOOLS": "LIANHUA PRIMARY SCHOOL", "ADDRESS": "2 BUKIT BATOK STREET 52", "POSTALCODE": 659243, "X_COORDINATES": 19191.198000, "Y_COORDINATES": 37370.849700, "LATITUDE": 1.354143, "LONGTITUDE": 103.754202, "Level_of_education_level_of_education": "Primary Schools (Excluding Mixed Level Schools)" }, "geometry": { "type": "Point", "coordinates": [ 19191.198, 37370.8497 ] } },
{ "type": "Feature", "properties": { "ALL_SCHOOLS": "LOYANG PRIMARY SCHOOL", "ADDRESS": "3 PASIR RIS DRIVE 6", "POSTALCODE": 519419, "X_COORDINATES": 41636.210000, "Y_COORDINATES": 39214.900700, "LATITUDE": 1.370648, "LONGTITUDE": 103.955936, "Level_of_education_level_of_education": "Primary Schools (Excluding Mixed Level Schools)" }, "geometry": { "type": "Point", "coordinates": [ 41636.21, 39214.9007 ] } },
{ "type": "Feature", "properties": { "ALL_SCHOOLS": "LOYANG SECONDARY SCHOOL", "ADDRESS": "12 PASIR RIS STREET 11", "POSTALCODE": 519073, "X_COORDINATES": 41758.106700, "Y_COORDINATES": 38735.804000, "LATITUDE": 1.366972, "LONGTITUDE": 103.956826, "Level_of_education_level_of_education": "Secondary Schools (Excluding Mixed Level Schools)" }, "geometry": { "type": "Point", "coordinates": [ 41758.1067, 38735.804 ] } },
{ "type": "Feature", "properties": { "ALL_SCHOOLS": "MACPHERSON PRIMARY SCHOOL", "ADDRESS": "2 MATTAR ROAD", "POSTALCODE": 387724, "X_COORDINATES": 33375.459300, "Y_COORDINATES": 34085.786400, "LATITUDE": 1.324557, "LONGTITUDE": 103.881618, "Level_of_education_level_of_education": "Primary Schools (Excluding Mixed Level Schools)" }, "geometry": { "type": "Point", "coordinates": [ 33375.4593, 34085.7864 ] } },
{ "type": "Feature", "properties": { "ALL_SCHOOLS": "MACPHERSON SECONDARY SCHOOL", "ADDRESS": "121 CIRCUIT ROAD", "POSTALCODE": 379499, "X_COORDINATES": 34173.778800, "Y_COORDINATES": 34390.487200, "LATITUDE": 1.327133, "LONGTITUDE": 103.888668, "Level_of_education_level_of_education": "Secondary Schools (Excluding Mixed Level Schools)" }, "geometry": { "type": "Point", "coordinates": [ 34173.7788, 34390.4872 ] } },
{ "type": "Feature", "properties": { "ALL_SCHOOLS": "MAHA BODHI SCHOOL", "ADDRESS": "10 UBI AVENUE 1", "POSTALCODE": 408931, "X_COORDINATES": 35590.973700, "Y_COORDINATES": 34514.198200, "LATITUDE": 1.329011, "LONGTITUDE": 103.901381, "Level_of_education_level_of_education": "Primary Schools (Excluding Mixed Level Schools)" }, "geometry": { "type": "Point", "coordinates": [ 35590.9737, 34514.1982 ] } },
{ "type": "Feature", "properties": { "ALL_SCHOOLS": "MANJUSRI SECONDARY SCHOOL", "ADDRESS": "20 UBI AVE 1", "POSTALCODE": 408940, "X_COORDINATES": 35612.379300, "Y_COORDINATES": 34410.634000, "LATITUDE": 1.327215, "LONGTITUDE": 103.901803, "Level_of_education_level_of_education": "Secondary Schools (Excluding Mixed Level Schools)" }, "geometry": { "type": "Point", "coordinates": [ 35612.3793, 34410.634 ] } },
{ "type": "Feature", "properties": { "ALL_SCHOOLS": "MARIS STELLA HIGH SCHOOL", "ADDRESS": "25 MOUNT VERNON ROAD", "POSTALCODE": 368051, "X_COORDINATES": 32956.142700, "Y_COORDINATES": 35950.175700, "LATITUDE": 1.341737, "LONGTITUDE": 103.878284, "Level_of_education_level_of_education": "Mixed Level Schools" }, "geometry": { "type": "Point", "coordinates": [ 32956.1427, 35950.1757 ] } },
{ "type": "Feature", "properties": { "ALL_SCHOOLS": "MARSILING PRIMARY SCHOOL", "ADDRESS": "31 WOODLANDS CENTRE ROAD", "POSTALCODE": 738927, "X_COORDINATES": 21365.101200, "Y_COORDINATES": 46236.823800, "LATITUDE": 1.433827, "LONGTITUDE": 103.773663, "Level_of_education_level_of_education": "Primary Schools (Excluding Mixed Level Schools)" }, "geometry": { "type": "Point", "coordinates": [ 21365.1012, 46236.8238 ] } },
{ "type": "Feature", "properties": { "ALL_SCHOOLS": "MARSILING SECONDARY SCHOOL", "ADDRESS": "12 MARSILING ROAD", "POSTALCODE": 739110, "X_COORDINATES": 21622.216600, "Y_COORDINATES": 46482.418900, "LATITUDE": 1.436669, "LONGTITUDE": 103.775995, "Level_of_education_level_of_education": "Secondary Schools (Excluding Mixed Level Schools)" }, "geometry": { "type": "Point", "coordinates": [ 21622.2166, 46482.4189 ] } },
{ "type": "Feature", "properties": { "ALL_SCHOOLS": "MARYMOUNT CONVENT SCHOOL", "ADDRESS": "430 LORONG 1 TOA PAYOH", "POSTALCODE": 319759, "X_COORDINATES": 29101.070500, "Y_COORDINATES": 35818.076800, "LATITUDE": 1.340196, "LONGTITUDE": 103.843209, "Level_of_education_level_of_education": "Primary Schools (Excluding Mixed Level Schools)" }, "geometry": { "type": "Point", "coordinates": [ 29101.0705, 35818.0768 ] } },
{ "type": "Feature", "properties": { "ALL_SCHOOLS": "MAYFLOWER PRIMARY SCHOOL", "ADDRESS": "200 ANG MO KIO AVE 5", "POSTALCODE": 569878, "X_COORDINATES": 29105.555900, "Y_COORDINATES": 39818.275300, "LATITUDE": 1.376395, "LONGTITUDE": 103.843181, "Level_of_education_level_of_education": "Primary Schools (Excluding Mixed Level Schools)" }, "geometry": { "type": "Point", "coordinates": [ 29105.5559, 39818.2753 ] } },
{ "type": "Feature", "properties": { "ALL_SCHOOLS": "MAYFLOWER SECONDARY SCHOOL", "ADDRESS": "2 ANG MO KIO STREET 21", "POSTALCODE": 569384, "X_COORDINATES": 28235.946400, "Y_COORDINATES": 38929.296200, "LATITUDE": 1.368331, "LONGTITUDE": 103.835438, "Level_of_education_level_of_education": "Secondary Schools (Excluding Mixed Level Schools)" }, "geometry": { "type": "Point", "coordinates": [ 28235.9464, 38929.2962 ] } },
{ "type": "Feature", "properties": { "ALL_SCHOOLS": "MEE TOH SCHOOL", "ADDRESS": "21 EDGEDALE PLAINS", "POSTALCODE": 828867, "X_COORDINATES": 36376.657000, "Y_COORDINATES": 41835.472500, "LATITUDE": 1.394828, "LONGTITUDE": 103.909040, "Level_of_education_level_of_education": "Primary Schools (Excluding Mixed Level Schools)" }, "geometry": { "type": "Point", "coordinates": [ 36376.657, 41835.4725 ] } },
{ "type": "Feature", "properties": { "ALL_SCHOOLS": "MERIDIAN JUNIOR COLLEGE", "ADDRESS": "21 PASIR RIS STREET 71", "POSTALCODE": 518799, "X_COORDINATES": 39537.676000, "Y_COORDINATES": 39813.765900, "LATITUDE": 1.376067, "LONGTITUDE": 103.937002, "Level_of_education_level_of_education": "Junior Colleges\/Centralised Institute (Excluding Mixed Level Schools)" }, "geometry": { "type": "Point", "coordinates": [ 39537.676, 39813.7659 ] } },
{ "type": "Feature", "properties": { "ALL_SCHOOLS": "MERIDIAN PRIMARY SCHOOL", "ADDRESS": "20 PASIR RIS ST 71", "POSTALCODE": 518798, "X_COORDINATES": 39303.545800, "Y_COORDINATES": 39724.688600, "LATITUDE": 1.375781, "LONGTITUDE": 103.935197, "Level_of_education_level_of_education": "Primary Schools (Excluding Mixed Level Schools)" }, "geometry": { "type": "Point", "coordinates": [ 39303.5458, 39724.6886 ] } },
{ "type": "Feature", "properties": { "ALL_SCHOOLS": "METHODIST GIRLS' SCHOOL (PRIMARY)", "ADDRESS": "11 BLACKMORE DRIVE", "POSTALCODE": 599986, "X_COORDINATES": 22395.909500, "Y_COORDINATES": 35014.199800, "LATITUDE": 1.332954, "LONGTITUDE": 103.782566, "Level_of_education_level_of_education": "Mixed Level Schools" }, "geometry": { "type": "Point", "coordinates": [ 22395.9095, 35014.1998 ] } },
{ "type": "Feature", "properties": { "ALL_SCHOOLS": "METHODIST GIRLS' SCHOOL (SECONDARY)", "ADDRESS": "11 BLACKMORE DRIVE", "POSTALCODE": 599986, "X_COORDINATES": 22395.909500, "Y_COORDINATES": 35014.199800, "LATITUDE": 1.332954, "LONGTITUDE": 103.782566, "Level_of_education_level_of_education": "Mixed Level Schools" }, "geometry": { "type": "Point", "coordinates": [ 22395.9095, 35014.1998 ] } },
{ "type": "Feature", "properties": { "ALL_SCHOOLS": "MILLENNIA INSTITUTE", "ADDRESS": "60 BUKIT BATOK WEST AVENUE 8", "POSTALCODE": 658965, "X_COORDINATES": 17792.029100, "Y_COORDINATES": 36937.155700, "LATITUDE": 1.350343, "LONGTITUDE": 103.741592, "Level_of_education_level_of_education": "Junior Colleges\/Centralised Institute (Excluding Mixed Level Schools)" }, "geometry": { "type": "Point", "coordinates": [ 17792.0291, 36937.1557 ] } },
{ "type": "Feature", "properties": { "ALL_SCHOOLS": "MONTFORT JUNIOR SCHOOL", "ADDRESS": "52 HOUGANG AVENUE 8", "POSTALCODE": 538786, "X_COORDINATES": 34230.911100, "Y_COORDINATES": 39536.115200, "LATITUDE": 1.373864, "LONGTITUDE": 103.889614, "Level_of_education_level_of_education": "Primary Schools (Excluding Mixed Level Schools)" }, "geometry": { "type": "Point", "coordinates": [ 34230.9111, 39536.1152 ] } },
{ "type": "Feature", "properties": { "ALL_SCHOOLS": "MONTFORT SECONDARY SCHOOL", "ADDRESS": "50 HOUGANG AVENUE 8", "POSTALCODE": 538785, "X_COORDINATES": 34188.713300, "Y_COORDINATES": 39551.243600, "LATITUDE": 1.373518, "LONGTITUDE": 103.888992, "Level_of_education_level_of_education": "Secondary Schools (Excluding Mixed Level Schools)" }, "geometry": { "type": "Point", "coordinates": [ 34188.7133, 39551.2436 ] } },
{ "type": "Feature", "properties": { "ALL_SCHOOLS": "NAN CHIAU HIGH SCHOOL", "ADDRESS": "20 ANCHORVALE LINK", "POSTALCODE": 545079, "X_COORDINATES": 34339.759300, "Y_COORDINATES": 41179.593700, "LATITUDE": 1.388713, "LONGTITUDE": 103.890283, "Level_of_education_level_of_education": "Secondary Schools (Excluding Mixed Level Schools)" }, "geometry": { "type": "Point", "coordinates": [ 34339.7593, 41179.5937 ] } },
{ "type": "Feature", "properties": { "ALL_SCHOOLS": "NAN CHIAU PRIMARY SCHOOL", "ADDRESS": "50 ANCHORVALE LINK", "POSTALCODE": 545080, "X_COORDINATES": 34410.836000, "Y_COORDINATES": 41553.034100, "LATITUDE": 1.391841, "LONGTITUDE": 103.890834, "Level_of_education_level_of_education": "Primary Schools (Excluding Mixed Level Schools)" }, "geometry": { "type": "Point", "coordinates": [ 34410.836, 41553.0341 ] } },
{ "type": "Feature", "properties": { "ALL_SCHOOLS": "NAN HUA HIGH SCHOOL", "ADDRESS": "41 CLEMENTI AVENUE 1", "POSTALCODE": 129956, "X_COORDINATES": 20793.107000, "Y_COORDINATES": 32268.109000, "LATITUDE": 1.308070, "LONGTITUDE": 103.769189, "Level_of_education_level_of_education": "Secondary Schools (Excluding Mixed Level Schools)" }, "geometry": { "type": "Point", "coordinates": [ 20793.107, 32268.109 ] } },
{ "type": "Feature", "properties": { "ALL_SCHOOLS": "NAN HUA PRIMARY SCHOOL", "ADDRESS": "30 JALAN LEMPENG", "POSTALCODE": 128806, "X_COORDINATES": 19963.690600, "Y_COORDINATES": 33497.793900, "LATITUDE": 1.319799, "LONGTITUDE": 103.761213, "Level_of_education_level_of_education": "Primary Schools (Excluding Mixed Level Schools)" }, "geometry": { "type": "Point", "coordinates": [ 19963.6906, 33497.7939 ] } },
{ "type": "Feature", "properties": { "ALL_SCHOOLS": "NANYANG GIRLS' HIGH SCHOOL", "ADDRESS": "2 LINDEN DRIVE", "POSTALCODE": 288683, "X_COORDINATES": 24561.416100, "Y_COORDINATES": 34754.675500, "LATITUDE": 1.330651, "LONGTITUDE": 103.802221, "Level_of_education_level_of_education": "Secondary Schools (Excluding Mixed Level Schools)" }, "geometry": { "type": "Point", "coordinates": [ 24561.4161, 34754.6755 ] } },
{ "type": "Feature", "properties": { "ALL_SCHOOLS": "NANYANG JUNIOR COLLEGE", "ADDRESS": "128 SERANGOON AVENUE 3", "POSTALCODE": 556111, "X_COORDINATES": 31692.578000, "Y_COORDINATES": 36932.991400, "LATITUDE": 1.350297, "LONGTITUDE": 103.866494, "Level_of_education_level_of_education": "Junior Colleges\/Centralised Institute (Excluding Mixed Level Schools)" }, "geometry": { "type": "Point", "coordinates": [ 31692.578, 36932.9914 ] } },
{ "type": "Feature", "properties": { "ALL_SCHOOLS": "NANYANG PRIMARY SCHOOL", "ADDRESS": "52 KING'S ROAD", "POSTALCODE": 268097, "X_COORDINATES": 25154.487200, "Y_COORDINATES": 33678.137400, "LATITUDE": 1.320943, "LONGTITUDE": 103.808147, "Level_of_education_level_of_education": "Primary Schools (Excluding Mixed Level Schools)" }, "geometry": { "type": "Point", "coordinates": [ 25154.4872, 33678.1374 ] } },
{ "type": "Feature", "properties": { "ALL_SCHOOLS": "NATIONAL JUNIOR COLLEGE", "ADDRESS": "37 HILLCREST ROAD", "POSTALCODE": 288913, "X_COORDINATES": 24749.487000, "Y_COORDINATES": 34722.567200, "LATITUDE": 1.329973, "LONGTITUDE": 103.804488, "Level_of_education_level_of_education": "Mixed Level Schools" }, "geometry": { "type": "Point", "coordinates": [ 24749.487, 34722.5672 ] } },
{ "type": "Feature", "properties": { "ALL_SCHOOLS": "NAVAL BASE PRIMARY SCHOOL", "ADDRESS": "7 YISHUN AVE 4", "POSTALCODE": 769028, "X_COORDINATES": 28609.746400, "Y_COORDINATES": 44230.580600, "LATITUDE": 1.416055, "LONGTITUDE": 103.839091, "Level_of_education_level_of_education": "Primary Schools (Excluding Mixed Level Schools)" }, "geometry": { "type": "Point", "coordinates": [ 28609.7464, 44230.5806 ] } },
{ "type": "Feature", "properties": { "ALL_SCHOOLS": "NAVAL BASE SECONDARY SCHOOL", "ADDRESS": "901 YISHUN RING ROAD", "POSTALCODE": 768689, "X_COORDINATES": 27747.583400, "Y_COORDINATES": 44573.214500, "LATITUDE": 1.419240, "LONGTITUDE": 103.831032, "Level_of_education_level_of_education": "Secondary Schools (Excluding Mixed Level Schools)" }, "geometry": { "type": "Point", "coordinates": [ 27747.5834, 44573.2145 ] } },
{ "type": "Feature", "properties": { "ALL_SCHOOLS": "NEW TOWN PRIMARY SCHOOL", "ADDRESS": "300 TANGLIN HALT ROAD", "POSTALCODE": 148812, "X_COORDINATES": 24303.327400, "Y_COORDINATES": 31333.331100, "LATITUDE": 1.299825, "LONGTITUDE": 103.799953, "Level_of_education_level_of_education": "Primary Schools (Excluding Mixed Level Schools)" }, "geometry": { "type": "Point", "coordinates": [ 24303.3274, 31333.3311 ] } },
{ "type": "Feature", "properties": { "ALL_SCHOOLS": "NEW TOWN SECONDARY SCHOOL", "ADDRESS": "1020 DOVER ROAD", "POSTALCODE": 139657, "X_COORDINATES": 21346.353800, "Y_COORDINATES": 32418.570800, "LATITUDE": 1.309150, "LONGTITUDE": 103.773605, "Level_of_education_level_of_education": "Secondary Schools (Excluding Mixed Level Schools)" }, "geometry": { "type": "Point", "coordinates": [ 21346.3538, 32418.5708 ] } },
{ "type": "Feature", "properties": { "ALL_SCHOOLS": "NGEE ANN PRIMARY SCHOOL", "ADDRESS": "344 MARINE TERRACE", "POSTALCODE": 449149, "X_COORDINATES": 37411.019500, "Y_COORDINATES": 32002.451800, "LATITUDE": 1.305526, "LONGTITUDE": 103.917371, "Level_of_education_level_of_education": "Primary Schools (Excluding Mixed Level Schools)" }, "geometry": { "type": "Point", "coordinates": [ 37411.0195, 32002.4518 ] } },
{ "type": "Feature", "properties": { "ALL_SCHOOLS": "NGEE ANN SECONDARY SCHOOL", "ADDRESS": "1 TAMPINES STREET 32", "POSTALCODE": 529283, "X_COORDINATES": 41736.110100, "Y_COORDINATES": 37396.789500, "LATITUDE": 1.354061, "LONGTITUDE": 103.956972, "Level_of_education_level_of_education": "Secondary Schools (Excluding Mixed Level Schools)" }, "geometry": { "type": "Point", "coordinates": [ 41736.1101, 37396.7895 ] } },
{ "type": "Feature", "properties": { "ALL_SCHOOLS": "NORTH SPRING PRIMARY SCHOOL", "ADDRESS": "1 RIVERVALE STREET", "POSTALCODE": 545088, "X_COORDINATES": 35777.200600, "Y_COORDINATES": 40999.839900, "LATITUDE": 1.386881, "LONGTITUDE": 103.903609, "Level_of_education_level_of_education": "Primary Schools (Excluding Mixed Level Schools)" }, "geometry": { "type": "Point", "coordinates": [ 35777.2006, 40999.8399 ] } },
{ "type": "Feature", "properties": { "ALL_SCHOOLS": "NORTH VIEW PRIMARY SCHOOL", "ADDRESS": "210 YISHUN AVENUE 6", "POSTALCODE": 768960, "X_COORDINATES": 29655.056400, "Y_COORDINATES": 45473.792600, "LATITUDE": 1.427616, "LONGTITUDE": 103.848313, "Level_of_education_level_of_education": "Primary Schools (Excluding Mixed Level Schools)" }, "geometry": { "type": "Point", "coordinates": [ 29655.0564, 45473.7926 ] } },
{ "type": "Feature", "properties": { "ALL_SCHOOLS": "NORTH VIEW SECONDARY SCHOOL", "ADDRESS": "530 YISHUN RING ROAD", "POSTALCODE": 768680, "X_COORDINATES": 29284.772400, "Y_COORDINATES": 45451.182100, "LATITUDE": 1.427923, "LONGTITUDE": 103.844727, "Level_of_education_level_of_education": "Secondary Schools (Excluding Mixed Level Schools)" }, "geometry": { "type": "Point", "coordinates": [ 29284.7724, 45451.1821 ] } },
{ "type": "Feature", "properties": { "ALL_SCHOOLS": "NORTH VISTA PRIMARY SCHOOL", "ADDRESS": "20 COMPASSVALE LINK", "POSTALCODE": 544974, "X_COORDINATES": 34971.404300, "Y_COORDINATES": 40531.086100, "LATITUDE": 1.382913, "LONGTITUDE": 103.895880, "Level_of_education_level_of_education": "Primary Schools (Excluding Mixed Level Schools)" }, "geometry": { "type": "Point", "coordinates": [ 34971.4043, 40531.0861 ] } },
{ "type": "Feature", "properties": { "ALL_SCHOOLS": "NORTH VISTA SECONDARY SCHOOL", "ADDRESS": "11 RIVERVALE LINK", "POSTALCODE": 545081, "X_COORDINATES": 35330.526600, "Y_COORDINATES": 40344.097500, "LATITUDE": 1.381017, "LONGTITUDE": 103.899463, "Level_of_education_level_of_education": "Secondary Schools (Excluding Mixed Level Schools)" }, "geometry": { "type": "Point", "coordinates": [ 35330.5266, 40344.0975 ] } },
{ "type": "Feature", "properties": { "ALL_SCHOOLS": "NORTHBROOKS SECONDARY SCHOOL", "ADDRESS": "585 YISHUN RING ROAD", "POSTALCODE": 768692, "X_COORDINATES": 29329.432400, "Y_COORDINATES": 44759.432700, "LATITUDE": 1.421082, "LONGTITUDE": 103.845179, "Level_of_education_level_of_education": "Secondary Schools (Excluding Mixed Level Schools)" }, "geometry": { "type": "Point", "coordinates": [ 29329.4324, 44759.4327 ] } },
{ "type": "Feature", "properties": { "ALL_SCHOOLS": "NORTHLAND PRIMARY SCHOOL", "ADDRESS": "15 YISHUN AVENUE 4", "POSTALCODE": 769026, "X_COORDINATES": 28846.865500, "Y_COORDINATES": 44749.149700, "LATITUDE": 1.420935, "LONGTITUDE": 103.840768, "Level_of_education_level_of_education": "Primary Schools (Excluding Mixed Level Schools)" }, "geometry": { "type": "Point", "coordinates": [ 28846.8655, 44749.1497 ] } },
{ "type": "Feature", "properties": { "ALL_SCHOOLS": "NORTHLAND SECONDARY SCHOOL", "ADDRESS": "3 YISHUN STREET 22", "POSTALCODE": 768578, "X_COORDINATES": 28755.190700, "Y_COORDINATES": 46389.190000, "LATITUDE": 1.435827, "LONGTITUDE": 103.840098, "Level_of_education_level_of_education": "Secondary Schools (Excluding Mixed Level Schools)" }, "geometry": { "type": "Point", "coordinates": [ 28755.1907, 46389.19 ] } },
{ "type": "Feature", "properties": { "ALL_SCHOOLS": "NORTHLIGHT SCHOOL", "ADDRESS": "151 TOWNER ROAD", "POSTALCODE": 327830, "X_COORDINATES": 30497.460300, "Y_COORDINATES": 33484.928400, "LATITUDE": 14.484775, "LONGTITUDE": 121.023241, "Level_of_education_level_of_education": "Secondary Schools (Excluding Mixed Level Schools)" }, "geometry": { "type": "Point", "coordinates": [ 30497.4603, 33484.9284 ] } },
{ "type": "Feature", "properties": { "ALL_SCHOOLS": "NORTHOAKS PRIMARY SCHOOL", "ADDRESS": "61 SEMBAWANG DRIVE", "POSTALCODE": 757622, "X_COORDINATES": 25806.756500, "Y_COORDINATES": 48696.349900, "LATITUDE": 1.456638, "LONGTITUDE": 103.813826, "Level_of_education_level_of_education": "Primary Schools (Excluding Mixed Level Schools)" }, "geometry": { "type": "Point", "coordinates": [ 25806.7565, 48696.3499 ] } },
{ "type": "Feature", "properties": { "ALL_SCHOOLS": "NUS HIGH SCHOOL OF MATHEMATICS AND SCIENCE", "ADDRESS": "20 CLEMENTI AVENUE 1", "POSTALCODE": 129957, "X_COORDINATES": 20882.570700, "Y_COORDINATES": 32098.864100, "LATITUDE": 1.307227, "LONGTITUDE": 103.769412, "Level_of_education_level_of_education": "Mixed Level Schools" }, "geometry": { "type": "Point", "coordinates": [ 20882.5707, 32098.8641 ] } },
{ "type": "Feature", "properties": { "ALL_SCHOOLS": "OPERA ESTATE PRIMARY SCHOOL", "ADDRESS": "48 FIDELIO STREET", "POSTALCODE": 458436, "X_COORDINATES": 38064.426600, "Y_COORDINATES": 33581.138600, "LATITUDE": 1.319773, "LONGTITUDE": 103.923725, "Level_of_education_level_of_education": "Primary Schools (Excluding Mixed Level Schools)" }, "geometry": { "type": "Point", "coordinates": [ 38064.4266, 33581.1386 ] } },
{ "type": "Feature", "properties": { "ALL_SCHOOLS": "ORCHID PARK SECONDARY SCHOOL", "ADDRESS": "10 YISHUN STREET 81", "POSTALCODE": 768454, "X_COORDINATES": 28505.311100, "Y_COORDINATES": 44124.447700, "LATITUDE": 1.414902, "LONGTITUDE": 103.838350, "Level_of_education_level_of_education": "Secondary Schools (Excluding Mixed Level Schools)" }, "geometry": { "type": "Point", "coordinates": [ 28505.3111, 44124.4477 ] } },
{ "type": "Feature", "properties": { "ALL_SCHOOLS": "OUTRAM SECONDARY SCHOOL", "ADDRESS": "3 YORK HILL", "POSTALCODE": 168622, "X_COORDINATES": 28417.816600, "Y_COORDINATES": 29867.712200, "LATITUDE": 1.286507, "LONGTITUDE": 103.837091, "Level_of_education_level_of_education": "Secondary Schools (Excluding Mixed Level Schools)" }, "geometry": { "type": "Point", "coordinates": [ 28417.8166, 29867.7122 ] } },
{ "type": "Feature", "properties": { "ALL_SCHOOLS": "PALM VIEW PRIMARY SCHOOL", "ADDRESS": "150 COMPASSVALE BOW", "POSTALCODE": 544822, "X_COORDINATES": 34443.145800, "Y_COORDINATES": 40643.674900, "LATITUDE": 14.484775, "LONGTITUDE": 121.023241, "Level_of_education_level_of_education": "Primary Schools (Excluding Mixed Level Schools)" }, "geometry": { "type": "Point", "coordinates": [ 34443.1458, 40643.6749 ] } },
{ "type": "Feature", "properties": { "ALL_SCHOOLS": "PARK VIEW PRIMARY SCHOOL", "ADDRESS": "60 PASIR RIS DRIVE 1", "POSTALCODE": 519524, "X_COORDINATES": 39837.676100, "Y_COORDINATES": 39972.615100, "LATITUDE": 1.377331, "LONGTITUDE": 103.939371, "Level_of_education_level_of_education": "Primary Schools (Excluding Mixed Level Schools)" }, "geometry": { "type": "Point", "coordinates": [ 39837.6761, 39972.6151 ] } },
{ "type": "Feature", "properties": { "ALL_SCHOOLS": "PASIR RIS CREST SECONDARY SCHOOL", "ADDRESS": "11 PASIR RIS STREET 41", "POSTALCODE": 518934, "X_COORDINATES": 42027.167600, "Y_COORDINATES": 39372.701900, "LATITUDE": 1.372334, "LONGTITUDE": 103.959377, "Level_of_education_level_of_education": "Secondary Schools (Excluding Mixed Level Schools)" }, "geometry": { "type": "Point", "coordinates": [ 42027.1676, 39372.7019 ] } },
{ "type": "Feature", "properties": { "ALL_SCHOOLS": "PASIR RIS PRIMARY SCHOOL", "ADDRESS": "5 PASIR RIS STREET 21", "POSTALCODE": 518968, "X_COORDINATES": 42422.940600, "Y_COORDINATES": 39368.820900, "LATITUDE": 1.372305, "LONGTITUDE": 103.962479, "Level_of_education_level_of_education": "Primary Schools (Excluding Mixed Level Schools)" }, "geometry": { "type": "Point", "coordinates": [ 42422.9406, 39368.8209 ] } },
{ "type": "Feature", "properties": { "ALL_SCHOOLS": "PASIR RIS SECONDARY SCHOOL", "ADDRESS": "390 TAMPINES STREET 21", "POSTALCODE": 529400, "X_COORDINATES": 40831.148000, "Y_COORDINATES": 37414.981600, "LATITUDE": 1.354805, "LONGTITUDE": 103.948043, "Level_of_education_level_of_education": "Secondary Schools (Excluding Mixed Level Schools)" }, "geometry": { "type": "Point", "coordinates": [ 40831.148, 37414.9816 ] } },
{ "type": "Feature", "properties": { "ALL_SCHOOLS": "PAYA LEBAR METHODIST GIRLS' SCHOOL (PRIMARY)", "ADDRESS": "298 LORONG AH SOO", "POSTALCODE": 536741, "X_COORDINATES": 33749.156300, "Y_COORDINATES": 36884.232200, "LATITUDE": 1.351003, "LONGTITUDE": 103.884813, "Level_of_education_level_of_education": "Primary Schools (Excluding Mixed Level Schools)" }, "geometry": { "type": "Point", "coordinates": [ 33749.1563, 36884.2322 ] } },
{ "type": "Feature", "properties": { "ALL_SCHOOLS": "PAYA LEBAR METHODIST GIRLS' SCHOOL (SECONDARY)", "ADDRESS": "296 LOR AH SOO", "POSTALCODE": 536742, "X_COORDINATES": 33816.844700, "Y_COORDINATES": 36990.746500, "LATITUDE": 1.350731, "LONGTITUDE": 103.885565, "Level_of_education_level_of_education": "Secondary Schools (Excluding Mixed Level Schools)" }, "geometry": { "type": "Point", "coordinates": [ 33816.8447, 36990.7465 ] } },
{ "type": "Feature", "properties": { "ALL_SCHOOLS": "PEI CHUN PUBLIC SCHOOL", "ADDRESS": "16 TOA PAYOH LORONG 7", "POSTALCODE": 319320, "X_COORDINATES": 30483.191400, "Y_COORDINATES": 35501.177100, "LATITUDE": 1.337371, "LONGTITUDE": 103.854820, "Level_of_education_level_of_education": "Primary Schools (Excluding Mixed Level Schools)" }, "geometry": { "type": "Point", "coordinates": [ 30483.1914, 35501.1771 ] } },
{ "type": "Feature", "properties": { "ALL_SCHOOLS": "PEI HWA PRESBYTERIAN PRIMARY SCHOOL", "ADDRESS": "7 PEI WAH AVENUE", "POSTALCODE": 597610, "X_COORDINATES": 21633.099000, "Y_COORDINATES": 35580.922900, "LATITUDE": 1.338081, "LONGTITUDE": 103.776130, "Level_of_education_level_of_education": "Primary Schools (Excluding Mixed Level Schools)" }, "geometry": { "type": "Point", "coordinates": [ 21633.099, 35580.9229 ] } },
{ "type": "Feature", "properties": { "ALL_SCHOOLS": "PEI HWA SECONDARY SCHOOL", "ADDRESS": "21 FERNVALE LINK", "POSTALCODE": 797702, "X_COORDINATES": 33023.417000, "Y_COORDINATES": 41361.567900, "LATITUDE": 1.390273, "LONGTITUDE": 103.878474, "Level_of_education_level_of_education": "Secondary Schools (Excluding Mixed Level Schools)" }, "geometry": { "type": "Point", "coordinates": [ 33023.417, 41361.5679 ] } },
{ "type": "Feature", "properties": { "ALL_SCHOOLS": "PEI TONG PRIMARY SCHOOL", "ADDRESS": "15 CLEMENTI AVENUE 5", "POSTALCODE": 129857, "X_COORDINATES": 20683.515200, "Y_COORDINATES": 33158.574600, "LATITUDE": 1.315889, "LONGTITUDE": 103.767747, "Level_of_education_level_of_education": "Primary Schools (Excluding Mixed Level Schools)" }, "geometry": { "type": "Point", "coordinates": [ 20683.5152, 33158.5746 ] } },
{ "type": "Feature", "properties": { "ALL_SCHOOLS": "PEICAI SECONDARY SCHOOL", "ADDRESS": "10 SERANGOON AVENUE 4", "POSTALCODE": 556094, "X_COORDINATES": 32137.000900, "Y_COORDINATES": 37927.077300, "LATITUDE": 1.358700, "LONGTITUDE": 103.870667, "Level_of_education_level_of_education": "Secondary Schools (Excluding Mixed Level Schools)" }, "geometry": { "type": "Point", "coordinates": [ 32137.0009, 37927.0773 ] } },
{ "type": "Feature", "properties": { "ALL_SCHOOLS": "PEIRCE SECONDARY SCHOOL", "ADDRESS": "10 SIN MING WALK", "POSTALCODE": 575566, "X_COORDINATES": 27620.705400, "Y_COORDINATES": 38685.415700, "LATITUDE": 1.366130, "LONGTITUDE": 103.829903, "Level_of_education_level_of_education": "Secondary Schools (Excluding Mixed Level Schools)" }, "geometry": { "type": "Point", "coordinates": [ 27620.7054, 38685.4157 ] } },
{ "type": "Feature", "properties": { "ALL_SCHOOLS": "PEIYING PRIMARY SCHOOL", "ADDRESS": "651 YISHUN RING ROAD", "POSTALCODE": 768687, "X_COORDINATES": 27664.016300, "Y_COORDINATES": 44355.312900, "LATITUDE": 1.417009, "LONGTITUDE": 103.830256, "Level_of_education_level_of_education": "Primary Schools (Excluding Mixed Level Schools)" }, "geometry": { "type": "Point", "coordinates": [ 27664.0163, 44355.3129 ] } },
{ "type": "Feature", "properties": { "ALL_SCHOOLS": "PING YI SECONDARY SCHOOL", "ADDRESS": "61 CHAI CHEE STREET", "POSTALCODE": 468980, "X_COORDINATES": 37739.775300, "Y_COORDINATES": 34374.119000, "LATITUDE": 1.326674, "LONGTITUDE": 103.920663, "Level_of_education_level_of_education": "Secondary Schools (Excluding Mixed Level Schools)" }, "geometry": { "type": "Point", "coordinates": [ 37739.7753, 34374.119 ] } },
{ "type": "Feature", "properties": { "ALL_SCHOOLS": "PIONEER JUNIOR COLLEGE", "ADDRESS": "21 TECK WHYE WALK", "POSTALCODE": 688258, "X_COORDINATES": 19214.543300, "Y_COORDINATES": 40705.313200, "LATITUDE": 1.384627, "LONGTITUDE": 103.753951, "Level_of_education_level_of_education": "Junior Colleges\/Centralised Institute (Excluding Mixed Level Schools)" }, "geometry": { "type": "Point", "coordinates": [ 19214.5433, 40705.3132 ] } },